<?xml version="1.0" encoding="utf-8" standalone="yes"?>
<gpx version="1.1" creator="Locus Android"
 xmlns="http://www.topografix.com/GPX/1/1"
 xmlns:xsi="http://www.w3.org/2001/XMLSchema-instance"
 xsi:schemaLocation="http://www.topografix.com/GPX/1/1 http://www.topografix.com/GPX/1/1/gpx.xsd"
 xmlns:gpxx="http://www.garmin.com/xmlschemas/GpxExtensions/v3"
 xmlns:gpxtrkx="http://www.garmin.com/xmlschemas/TrackStatsExtension/v1"
 xmlns:gpxtpx="http://www.garmin.com/xmlschemas/TrackPointExtension/v2"
 xmlns:locus="http://www.locusmap.eu">
<wpt lat="52.266747784" lon="6.19414051328">
  <name>aldi Timmermansweg 37 7433 BK Schalkhaar </name>
</wpt>
<wpt lat="51.5089426339" lon="3.88783924812">
  <name>aldi Molenplein 6 4461 BJ Goes </name>
</wpt>
<wpt lat="52.4599681637" lon="6.57128901515">
  <name>aldi Julianaplein  35 7681 AX Vroomshoop </name>
</wpt>
<wpt lat="52.0375111142" lon="4.6364435461">
  <name>aldi Zuidplashof 2 2743 CR Waddinxveen </name>
</wpt>
<wpt lat="52.2743312663" lon="6.79243219805">
  <name>aldi Uitslagsweg 95-9 7556 LN Hengelo (Ov.) </name>
</wpt>
<wpt lat="51.9190886221" lon="4.46426842464">
  <name>aldi 1e Middellandstraat 56c 3014 BG Rotterdam </name>
</wpt>
<wpt lat="51.9854898641" lon="6.56740394581">
  <name>aldi De Leest 35 7131 LE Lichtenvoorde </name>
</wpt>
<wpt lat="52.282177539" lon="6.42213652681">
  <name>aldi Zwartepad 14 7451 BJ Holten </name>
</wpt>
<wpt lat="51.6599923989" lon="5.62292740206">
  <name>aldi Violierstraat 15 5402 LA Uden </name>
</wpt>
<wpt lat="51.8410720543" lon="5.83993370557">
  <name>aldi Molenweg 9 6542 PP Nijmegen </name>
</wpt>
<wpt lat="51.8615927642" lon="6.48875827138">
  <name>aldi Hogestraat 69 7091 CC Dinxperlo </name>
</wpt>
<wpt lat="53.2254778731" lon="6.52725822933">
  <name>aldi Siersteenlaan 466 9743 ES Groningen </name>
</wpt>
<wpt lat="52.5176973422" lon="6.10558431474">
  <name>aldi Biss. Willebrandlaan  28 8021 GA Zwolle </name>
</wpt>
<wpt lat="52.2314989437" lon="6.58435615809">
  <name>aldi Het Jannink 121 7471 VE Goor </name>
</wpt>
<wpt lat="51.4453576544" lon="3.57037872123">
  <name>aldi Glacisstraat 22C 4381 RJ Vlissingen </name>
</wpt>
<wpt lat="52.1863481552" lon="6.88218449432">
  <name>aldi De Posten 167-171 7544 LR Enschede </name>
</wpt>
<wpt lat="52.7784186442" lon="6.8972930973">
  <name>aldi Wilhelminastraat  10 7811 JA Emmen </name>
</wpt>
<wpt lat="52.6979086324" lon="5.11581793492">
  <name>aldi Zwaagdijk 227c 1684 NG Zwaagdijk-Oost </name>
</wpt>
<wpt lat="52.8431118038" lon="5.70885758151">
  <name>aldi Stationsweg 6 8531 HH Lemmer </name>
</wpt>
<wpt lat="51.4632120696" lon="5.4642421047">
  <name>aldi Judas Taddeusplein 1 5622 JX Eindhoven </name>
</wpt>
<wpt lat="51.4331480748" lon="5.49016055338">
  <name>aldi Geldropseweg 105 5611 SE Eindhoven </name>
</wpt>
<wpt lat="52.3661215074" lon="6.67748990359">
  <name>aldi Ootmarsumsestraat 240 7603 AP Almelo </name>
</wpt>
<wpt lat="52.7160480643" lon="6.48398287365">
  <name>aldi Nije Nering  34 7906 EW Hoogeveen </name>
</wpt>
<wpt lat="52.252397255" lon="5.37859071495">
  <name>aldi De Ziel 10 3751 BT Spakenburg </name>
</wpt>
<wpt lat="53.3610780218" lon="6.37426563773">
  <name>aldi De Nije Nering 16 9965 NA Leens </name>
</wpt>
<wpt lat="51.4952327594" lon="5.66731791653">
  <name>aldi Nieuwveld 1 5702 HW Helmond </name>
</wpt>
<wpt lat="52.5037402024" lon="4.95706069182">
  <name>aldi Poelstraat 23 1441 RR Purmerend </name>
</wpt>
<wpt lat="53.2139115956" lon="6.27630253519">
  <name>aldi Abel Tasmanplein 1 9861 JB Grootegast </name>
</wpt>
<wpt lat="52.1091611597" lon="5.17442672397">
  <name>aldi Prof. Dr. J. Tinbergenweg 10 3731 LG De Bilt </name>
</wpt>
<wpt lat="51.7435181954" lon="5.26122025216">
  <name>aldi Raadhuis 5-6 5321 HL Hedel </name>
</wpt>
<wpt lat="52.6808793689" lon="5.95611706384">
  <name>aldi Voorpoort 13 8325 CL Vollenhove </name>
</wpt>
<wpt lat="53.0611092349" lon="5.53153834047">
  <name>aldi Snekerstraat 7 8701 XA Bolsward </name>
</wpt>
<wpt lat="52.0551219647" lon="4.69187772989">
  <name>aldi Dorpsweg 36 2811 KJ Reeuwijk </name>
</wpt>
<wpt lat="51.5932718989" lon="4.79904988566">
  <name>aldi Teteringsedijk 130 4817 MJ Breda </name>
</wpt>
<wpt lat="52.1879526126" lon="5.60764792798">
  <name>aldi Kerkstraat 12 3781 GB Voorthuizen </name>
</wpt>
<wpt lat="52.1398102626" lon="6.21002253284">
  <name>aldi Jan Vermeerstraat 53 7204 CL Zutphen </name>
</wpt>
<wpt lat="51.8189409818" lon="4.69482750475">
  <name>aldi Merwedestraat 50 3313 CS Dordrecht </name>
</wpt>
<wpt lat="52.129062563" lon="5.20729692867">
  <name>aldi Vinkenlaan 7 3722 AH Bilthoven </name>
</wpt>
<wpt lat="52.7874915988" lon="6.10719410042">
  <name>aldi Steenwijkerdiep 27 8331 LP Steenwijk </name>
</wpt>
<wpt lat="51.8612817459" lon="5.77181908714">
  <name>aldi Julianaplein 136-138 6641 CT Beuningen </name>
</wpt>
<wpt lat="51.9680011815" lon="6.29242737159">
  <name>aldi Schouwburgplein 224 7001 DJ Doetinchem </name>
</wpt>
<wpt lat="51.5265875346" lon="4.49176967935">
  <name>aldi Dijkcentrum 41-43 4706 LB Roosendaal </name>
</wpt>
<wpt lat="51.5771004058" lon="4.77089212618">
  <name>aldi Gr. Hendrik-III-Plein 35 4819 CJ Breda </name>
</wpt>
<wpt lat="51.3533299359" lon="5.45911597154">
  <name>aldi Handwerkstraat 14 5554 HP Valkenswaard </name>
</wpt>
<wpt lat="51.8746424883" lon="4.46924167313">
  <name>aldi Plein 1953 nr. 187 3086 EM Rotterdam </name>
</wpt>
<wpt lat="51.8412498592" lon="5.8577043005">
  <name>aldi Mariënburgpassage 9 6511 PM Nijmegen </name>
</wpt>
<wpt lat="51.6795472177" lon="5.79142429815">
  <name>aldi Wanroijseweg 49a 5451 GZ Mill </name>
</wpt>
<wpt lat="53.2273514454" lon="6.56265552773">
  <name>aldi Beren 10 9714 DV Groningen </name>
</wpt>
<wpt lat="52.3901891557" lon="6.0436210561">
  <name>aldi Zwolseweg  19-21 8181 AA Heerde </name>
</wpt>
<wpt lat="53.2442421961" lon="6.40691101202">
  <name>aldi Dorpsvenne 1e 9801 DA Zuidhorn </name>
</wpt>
<wpt lat="50.8833072066" lon="5.92543221065">
  <name>aldi Kerkplein 1-3 6367 EN Voerendaal </name>
</wpt>
<wpt lat="52.314367921" lon="4.95499225213">
  <name>aldi Bijlmerplein 719b 1102 MA Amsterdam </name>
</wpt>
<wpt lat="51.6434205312" lon="5.35385037757">
  <name>aldi Oude Schoolstraat 6 5271 AN Sint Michielsgestel </name>
</wpt>
<wpt lat="52.5191913145" lon="6.07114929045">
  <name>aldi Gasthuisdijk  1 8041 AE Zwolle </name>
</wpt>
<wpt lat="51.4462712795" lon="4.04340389951">
  <name>aldi Sluisweg 26 4416 RL Kruiningen </name>
</wpt>
<wpt lat="52.3466118214" lon="6.64388225518">
  <name>aldi Vincent van Goghplein 3 7606 GL Almelo </name>
</wpt>
<wpt lat="51.8641585835" lon="6.04714639679">
  <name>aldi Heerbaan 158 6566 EV Millingen aan de Rijn </name>
</wpt>
<wpt lat="51.6841084224" lon="4.79594722612">
  <name>aldi Stationsstraat 42B 4921 AD Made </name>
</wpt>
<wpt lat="51.8024995952" lon="5.25116583661">
  <name>aldi Fiep Westendorpplein 2 5302 TA Zaltbommel </name>
</wpt>
<wpt lat="51.4029128039" lon="5.7484996779">
  <name>aldi Julianastraat 50 5721 GL Asten </name>
</wpt>
<wpt lat="51.8083996126" lon="5.83053579479">
  <name>aldi Binnenhof 10-12 6535 TN Nijmegen </name>
</wpt>
<wpt lat="52.5608597708" lon="5.92500053627">
  <name>aldi Burg. van Engelenweg  12 8271 AS IJsselmuiden </name>
</wpt>
<wpt lat="51.3171403746" lon="5.35754658937">
  <name>aldi Burg. Magneestraat 57 5571 HC Bergeijk </name>
</wpt>
<wpt lat="51.4636603015" lon="5.63374624098">
  <name>aldi Hoofdstraat 95-97 5706 AK Mierlo-Hout </name>
</wpt>
<wpt lat="51.4421289921" lon="4.92857917656">
  <name>aldi Stationsstraat 29 5111 CK Baarle-Nassau </name>
</wpt>
<wpt lat="52.2969419311" lon="4.69032190351">
  <name>aldi Graan voor Visch 14005 2132 VW Hoofddorp </name>
</wpt>
<wpt lat="52.2745898963" lon="4.7948680402">
  <name>aldi Poldermeesterplein 7 1432 JZ Aalsmeer </name>
</wpt>
<wpt lat="51.2089185667" lon="5.94921926712">
  <name>aldi Dorpstraat 69 6085 BE Horn </name>
</wpt>
<wpt lat="51.6579003256" lon="5.60807960235">
  <name>aldi Mr. van Coothstraat 63 5401 BK Uden </name>
</wpt>
<wpt lat="51.6153182135" lon="5.54422776833">
  <name>aldi Vlas en Graan 126 5461 KL Veghel </name>
</wpt>
<wpt lat="51.6263513141" lon="4.94342697628">
  <name>aldi Hoge Ham 145 5104 JD Dongen </name>
</wpt>
<wpt lat="52.3741327035" lon="5.22076876633">
  <name>aldi Regisseurstraat 1a 1315 LT Almere </name>
</wpt>
<wpt lat="52.7165873913" lon="6.49925335452">
  <name>aldi Wielewaal  2 7905 GZ Hoogeveen </name>
</wpt>
<wpt lat="53.0586500766" lon="6.72381395952">
  <name>aldi Zuidlaarderweg 85 9468 AD Annen </name>
</wpt>
<wpt lat="51.5981378663" lon="4.76938126588">
  <name>aldi Belcrumweg 5-7 4815 HA Breda </name>
</wpt>
<wpt lat="52.1013726762" lon="5.04627339513">
  <name>aldi Ella Fitzgeraldplein 191 3543 EN Utrecht </name>
</wpt>
<wpt lat="52.4852223653" lon="4.66828852416">
  <name>aldi Beijneslaan 169 1947 HK Beverwijk </name>
</wpt>
<wpt lat="52.5099694658" lon="5.44827015298">
  <name>aldi Jol 3525 8243 HG Lelystad </name>
</wpt>
<wpt lat="52.0451724658" lon="6.60989689169">
  <name>aldi Het Pand 2 7141 VH Groenlo </name>
</wpt>
<wpt lat="51.4748310597" lon="3.9644974218">
  <name>aldi Hoofdstraat 15 4421 JR Kapelle-Biezelinge </name>
</wpt>
<wpt lat="50.9165893864" lon="5.95513680329">
  <name>aldi Groeët Genhei 4 6413 GN Heerlen </name>
</wpt>
<wpt lat="51.4700023113" lon="5.47717434939">
  <name>aldi W.C. Woensel 77 5625 AD Eindhoven </name>
</wpt>
<wpt lat="51.6549879987" lon="3.90516018225">
  <name>aldi Grevelingenstraat 7 4301 XZ Zierikzee </name>
</wpt>
<wpt lat="50.9170089484" lon="5.88356878989">
  <name>aldi Markt 10 6361 CB Nuth </name>
</wpt>
<wpt lat="51.5183619329" lon="5.05782967777">
  <name>aldi Wethouder de Brouwerstraat 33 5051 SJ Goirle </name>
</wpt>
<wpt lat="51.6092198229" lon="4.78519133972">
  <name>aldi Brusselstraat 10-12 4826 NJ Breda </name>
</wpt>
<wpt lat="51.7915316302" lon="4.65317092797">
  <name>aldi Admiraalsplein 68-70 3317 BC Dordrecht </name>
</wpt>
<wpt lat="50.9597674138" lon="5.83201068222">
  <name>aldi Jos Kleijnenlaan  38 - 42 6164 AR Geleen </name>
</wpt>
<wpt lat="50.8706698584" lon="5.82389880134">
  <name>aldi Koningswinkelstraat 2-4-6 6301 WJ Valkenburg </name>
</wpt>
<wpt lat="51.9163983537" lon="4.50016934315">
  <name>aldi Maaskade 23a 3071 NA Rotterdam </name>
</wpt>
<wpt lat="51.5650322985" lon="5.46455686726">
  <name>aldi Sluisplein 2 5492 AN St. Oedenrode </name>
</wpt>
<wpt lat="51.8940712292" lon="6.38110048193">
  <name>aldi Ir. Sassenstraat 20 7071 BC Ulft </name>
</wpt>
<wpt lat="51.6484820102" lon="5.95016355481">
  <name>aldi De Kloostertuin 15 5831 JS Boxmeer </name>
</wpt>
<wpt lat="51.9354098245" lon="4.49035774443">
  <name>aldi Linker Rottekade 6B 3034 NV Rotterdam </name>
</wpt>
<wpt lat="51.9736800736" lon="6.31631335344">
  <name>aldi Houtsmastraat 148 7002 KK Doetinchem </name>
</wpt>
<wpt lat="52.3014901765" lon="6.75239440015">
  <name>aldi Grotestraat 232-234 7622 GV Borne </name>
</wpt>
<wpt lat="52.2609299666" lon="4.55404770056">
  <name>aldi Madelief 8 2161 EX Lisse </name>
</wpt>
<wpt lat="52.9358816972" lon="4.77072125508">
  <name>aldi Vrede en Vrijheid 12-16 1785 RM Den Helder </name>
</wpt>
<wpt lat="52.091919718" lon="5.09052001814">
  <name>aldi Haroekoeplein 12 3531 WN Utrecht </name>
</wpt>
<wpt lat="51.1932080381" lon="5.72276109354">
  <name>aldi Mgr. Nolensstraat 1 6039 CK Stramproy </name>
</wpt>
<wpt lat="52.3439692226" lon="4.90852430475">
  <name>aldi Gaaspstraat 41 1079 VC Amsterdam </name>
</wpt>
<wpt lat="51.4322285804" lon="5.47025856624">
  <name>aldi Hoogstraat 107a 5615 PB Eindhoven </name>
</wpt>
<wpt lat="52.6263399942" lon="4.72249063735">
  <name>aldi Vincent van Goghlaan 1 1816 VM Alkmaar </name>
</wpt>
<wpt lat="51.5886512614" lon="5.30802994175">
  <name>aldi Kapelweg 3 5281 LP Boxtel </name>
</wpt>
<wpt lat="52.6601398381" lon="5.08586153222">
  <name>aldi Westerblokker 129 1695 AD Blokker </name>
</wpt>
<wpt lat="50.8345775309" lon="5.98465253839">
  <name>aldi Marktstraat 1 6369 AG Simpelveld </name>
</wpt>
<wpt lat="53.1694590034" lon="6.86105043658">
  <name>aldi Kerkstraat 77-79 9636 AB Zuidbroek </name>
</wpt>
<wpt lat="51.7365682421" lon="5.53537844373">
  <name>aldi Osseweg 1 5384 NA Heesch </name>
</wpt>
<wpt lat="51.7521595948" lon="5.50053872471">
  <name>aldi Dr. Schaepmanlaan 109 5344 BC Oss </name>
</wpt>
<wpt lat="53.3359213884" lon="6.91126855505">
  <name>aldi De Wending 16 9933 KN Delfzijl </name>
</wpt>
<wpt lat="51.8699117067" lon="5.2883437918">
  <name>aldi Rijksstraatweg 72 4194 SL Geldermalsen </name>
</wpt>
<wpt lat="51.5469213337" lon="5.08530395283">
  <name>aldi Transvaalplein  45 5021 TD Tilburg </name>
</wpt>
<wpt lat="51.9302584448" lon="6.07684199622">
  <name>aldi Muldershof 35 6901 GW Zevenaar </name>
</wpt>
<wpt lat="52.0718414228" lon="4.64172256392">
  <name>aldi Puttelaan 142 2771 SV Boskoop </name>
</wpt>
<wpt lat="51.4113387383" lon="6.03703802194">
  <name>aldi Raadhuisplein 4 5975 BK Sevenum </name>
</wpt>
<wpt lat="53.2419388151" lon="6.6132063952">
  <name>aldi Kajuit 287 9733 CV Groningen </name>
</wpt>
<wpt lat="53.1724185528" lon="6.61149768415">
  <name>aldi Jachtlaan 2 9751 BT Haren </name>
</wpt>
<wpt lat="51.9436485845" lon="6.12910157474">
  <name>aldi Kerkstraat 36 6941 AH Didam </name>
</wpt>
<wpt lat="52.1266112607" lon="4.44806264931">
  <name>aldi Schoolstraat 6 2251 BH Voorschoten </name>
</wpt>
<wpt lat="52.164607843" lon="4.48190412134">
  <name>aldi Stationsplein 220 - 230 2312 AK Leiden </name>
</wpt>
<wpt lat="51.9712313128" lon="6.71164613819">
  <name>aldi Landbouwstraat 15 7101 EK Winterswijk </name>
</wpt>
<wpt lat="50.8575578967" lon="6.02766709081">
  <name>aldi Carboonplein 16 6466 CX Kerkrade </name>
</wpt>
<wpt lat="52.6477721476" lon="6.20976172957">
  <name>aldi Meestersweg 1H 7951 BR Staphorst </name>
</wpt>
<wpt lat="51.533390719" lon="4.46539257665">
  <name>aldi Boulevard 118A 4701 EZ Roosendaal </name>
</wpt>
<wpt lat="51.4702375986" lon="4.66077019554">
  <name>aldi Molenstraat 51-53 4881 CR Zundert </name>
</wpt>
<wpt lat="51.82571151" lon="4.15208691558">
  <name>aldi Kastanjelaan 42 3224 TJ Hellevoetsluis </name>
</wpt>
<wpt lat="52.4478179778" lon="5.84705633269">
  <name>aldi Vrijheidsstraat 18 8081 XD Elburg </name>
</wpt>
<wpt lat="51.5656472401" lon="5.07878387119">
  <name>aldi Wilhelminapark 48 5041 ED Tilburg </name>
</wpt>
<wpt lat="51.2673801993" lon="3.90901827193">
  <name>aldi Tuinstraat 3+5 4571 EX Axel </name>
</wpt>
<wpt lat="52.0477720484" lon="6.30936159743">
  <name>aldi Zuivelweg 7 7255 XA Hengelo (Gld.) </name>
</wpt>
<wpt lat="51.5116292636" lon="5.65078838541">
  <name>aldi Kanaaldijk 3 5735 SL Aarle-Rixtel </name>
</wpt>
<wpt lat="51.5113606077" lon="5.49195020338">
  <name>aldi Heistraat 14b 5691 CA Son </name>
</wpt>
<wpt lat="52.2004279116" lon="5.95510982364">
  <name>aldi Hoge Dries 64 7335 AS Apeldoorn </name>
</wpt>
<wpt lat="51.9410706695" lon="6.46426075083">
  <name>aldi Burg. v.d. Zandestraat 9A 7051 CS Varsseveld </name>
</wpt>
<wpt lat="52.2216383532" lon="4.49170672684">
  <name>aldi Oosthoutplein 5 2215 VM Voorhout </name>
</wpt>
<wpt lat="53.1110726819" lon="6.8854220521">
  <name>aldi Beneden Oosterdiep 165 9645 LN Veendam </name>
</wpt>
<wpt lat="50.8989019735" lon="5.96002011961">
  <name>aldi Zeswegenlaan 283 6412 HK Heerlen </name>
</wpt>
<wpt lat="51.8225987499" lon="4.39618977908">
  <name>aldi Molenaar 8 3262 DE Oud-Beijerland </name>
</wpt>
<wpt lat="51.4886702659" lon="4.29071734113">
  <name>aldi Glacisstraat 17 4615 AE Bergen op Zoom </name>
</wpt>
<wpt lat="52.0067916797" lon="6.34966019859">
  <name>aldi Markt 5 7021 AA Zelhem </name>
</wpt>
<wpt lat="52.2994993454" lon="5.61977078323">
  <name>aldi Stationsstraat  94 3851 NL Ermelo </name>
</wpt>
<wpt lat="52.7988410069" lon="6.897239138">
  <name>aldi Middenhaag 515 7815 LG Emmen </name>
</wpt>
<wpt lat="51.6048018871" lon="5.67281277154">
  <name>aldi Kerkstraat 8 5427 BC Boekel </name>
</wpt>
<wpt lat="51.2501810619" lon="5.89679781071">
  <name>aldi Dorpstraat 22 6093 EC Heythuysen </name>
</wpt>
<wpt lat="51.3272286773" lon="3.83551671708">
  <name>aldi Axelsestraat 163-165 4537 AH Terneuzen </name>
</wpt>
<wpt lat="52.907090403" lon="4.96126951694">
  <name>aldi Hoofdstraat 4 1777 CB Hippolytushoef </name>
</wpt>
<wpt lat="52.8342188748" lon="6.36106359655">
  <name>aldi Heuvelenweg 34h 7991 CM Dwingeloo </name>
</wpt>
<wpt lat="52.7278518077" lon="6.48018773647">
  <name>aldi Markt  9 7902 BK Hoogeveen </name>
</wpt>
<wpt lat="52.4347378482" lon="4.81067811403">
  <name>aldi Westzanerdijk 118c 1507 AK Zaandam </name>
</wpt>
<wpt lat="53.2542884387" lon="6.03719989983">
  <name>aldi Leeuwerikstraat 43 9271 CR Zwaagwesteinde </name>
</wpt>
<wpt lat="51.726910042" lon="5.88034921854">
  <name>aldi Kaneelstraat 38-44 5431 DZ Cuijk </name>
</wpt>
<wpt lat="51.3305497443" lon="3.86237945345">
  <name>aldi Kokkeldreef 10 4533 DD Terneuzen </name>
</wpt>
<wpt lat="51.3954392382" lon="4.32766147271">
  <name>aldi Hondseind 10 4641 HN Ossendrecht </name>
</wpt>
<wpt lat="51.6456193026" lon="4.45233442693">
  <name>aldi Oude Molensedijk 9 4793 TE Fijnaart </name>
</wpt>
<wpt lat="52.2129107305" lon="5.28489039683">
  <name>aldi Nieuwstraat 13 3743 BK Baarn </name>
</wpt>
<wpt lat="50.7707501316" lon="6.02410577725">
  <name>aldi Kerkstraat 2 6291 AC Vaals </name>
</wpt>
<wpt lat="53.0560015954" lon="4.79915780426">
  <name>aldi Wilhelminalaan  99 1791 AM Den Burg </name>
</wpt>
<wpt lat="52.5733504102" lon="6.292319453">
  <name>aldi Grote Markt 22 7711 CZ Nieuwleusen </name>
</wpt>
<wpt lat="52.9741699126" lon="6.9545259243">
  <name>aldi Parklaan 71-73 9521 GB Nieuw-Buinen </name>
</wpt>
<wpt lat="52.172627957" lon="5.00202677212">
  <name>aldi Hazeslinger 10 3621 AT Breukelen </name>
</wpt>
<wpt lat="51.9960119132" lon="5.97404054345">
  <name>aldi Churchillplein 40 6883 EW Velp </name>
</wpt>
<wpt lat="52.0656276461" lon="4.32061079132">
  <name>aldi Van der Kunstraat 75 2521 BA 's-Gravenhage </name>
</wpt>
<wpt lat="52.0672917404" lon="4.3302874918">
  <name>aldi Laakweg 126 e 2521 SC 's-Gravenhage </name>
</wpt>
<wpt lat="52.133512105" lon="6.20486042682">
  <name>aldi Ruys de Beerenbrouckstraat 8 7204 MN Zutphen </name>
</wpt>
<wpt lat="52.2609574888" lon="6.22511314939">
  <name>aldi Andriessenplein  35 7425 GZ Deventer </name>
</wpt>
<wpt lat="52.1801613551" lon="5.37389625617">
  <name>aldi Hamseweg 17 3828 AA Hoogland </name>
</wpt>
<wpt lat="51.9102295423" lon="4.43472570989">
  <name>aldi Vierhavensstraat 113 3029 BB Rotterdam </name>
</wpt>
<wpt lat="52.3801387746" lon="5.78666688685">
  <name>aldi Laan  66 8071 JB Nunspeet </name>
</wpt>
<wpt lat="51.3613775404" lon="5.32142983368">
  <name>aldi Lindestraat 49 5521 EH Eersel </name>
</wpt>
<wpt lat="50.8280794227" lon="5.76766422132">
  <name>aldi Kerkstraat 83 6267 EC Cadier en Keer </name>
</wpt>
<wpt lat="52.4601709124" lon="4.81752195145">
  <name>aldi Dr. H.G. Scholtenstraat  5b 1508 EB Zaandam </name>
</wpt>
<wpt lat="51.4233915199" lon="4.32295802071">
  <name>aldi Raadhuisstraat 130C 4631 NJ Hoogerheide </name>
</wpt>
<wpt lat="52.8585193666" lon="6.51416410674">
  <name>aldi Ventweg Zuid 1 9411 ZZ Beilen </name>
</wpt>
<wpt lat="52.8548322595" lon="5.02620053689">
  <name>aldi Brinkweg 3 1771 CN Wieringerwerf </name>
</wpt>
<wpt lat="52.9240475937" lon="6.79819684954">
  <name>aldi Buinerstraat 8 9531 CG Borger </name>
</wpt>
<wpt lat="52.5050594786" lon="6.26192238272">
  <name>aldi Kerkplein  17 7721 AC Dalfsen </name>
</wpt>
<wpt lat="52.4965026385" lon="4.66517687141">
  <name>aldi Frank Sinatraplein  42 1945 WM Beverwijk </name>
</wpt>
<wpt lat="51.6873812776" lon="4.9470242627">
  <name>aldi Dorpsplein 5-17-19 5165 CJ Waspik </name>
</wpt>
<wpt lat="52.0806022632" lon="4.36288790001">
  <name>aldi Monseigneur van Steelaan 205 2273 ER Voorburg </name>
</wpt>
<wpt lat="53.3244279323" lon="6.00790000191">
  <name>aldi Hogedijken 4 9101 WV Dokkum </name>
</wpt>
<wpt lat="51.5899196089" lon="5.07876588475">
  <name>aldi Verdiplein 95 5049 NP Tilburg </name>
</wpt>
<wpt lat="53.2043891502" lon="6.56252062949">
  <name>aldi Hoornsediep 147-153 9727 GH Groningen </name>
</wpt>
<wpt lat="52.0483085392" lon="6.10178917757">
  <name>aldi Buitensingel 77 6951 AX Dieren </name>
</wpt>
<wpt lat="52.0836584799" lon="4.7425095363">
  <name>aldi Doortocht 9 2411 DS Bodegraven </name>
</wpt>
<wpt lat="51.5239913147" lon="5.98911317356">
  <name>aldi D'n Herk 96 5803 DN Venray </name>
</wpt>
<wpt lat="51.7678401799" lon="5.5266280445">
  <name>aldi Wolfskooy 5 5345 MH Oss </name>
</wpt>
<wpt lat="52.9316319838" lon="7.01201056135">
  <name>aldi Marktstraat  50 9581 AC Musselkanaal </name>
</wpt>
<wpt lat="52.2117810832" lon="5.98396006076">
  <name>aldi Auroralaan 39 7321 BN Apeldoorn </name>
</wpt>
<wpt lat="52.7665306467" lon="5.10282273771">
  <name>aldi Randweg  17 1671 GG Medemblik </name>
</wpt>
<wpt lat="52.1576125057" lon="5.39501232747">
  <name>aldi Kreupelstraat 32 3811 HZ Amersfoort </name>
</wpt>
<wpt lat="51.7793591837" lon="5.93331026791">
  <name>aldi Hoflaan 3 6561 AV Groesbeek </name>
</wpt>
<wpt lat="51.4122979173" lon="5.39705378752">
  <name>aldi Mira (W.C. Zonderwijk) 23a 5505 AR Veldhoven </name>
</wpt>
<wpt lat="51.6992217955" lon="5.97253867636">
  <name>aldi Martinushof 1 6591 DM Gennep </name>
</wpt>
<wpt lat="52.2888892363" lon="5.97008352838">
  <name>aldi Molenstraat  20 8171 CE Vaassen </name>
</wpt>
<wpt lat="52.1685187945" lon="4.71171676451">
  <name>aldi Westkanaalweg 100 2461 EJ Ter Aar </name>
</wpt>
<wpt lat="51.1286474105" lon="6.06890098644">
  <name>aldi Angsterweg 16a 6063 AV Vlodrop </name>
</wpt>
<wpt lat="53.0017692624" lon="6.06393673117">
  <name>aldi Schoolstraat 1 8401 CS Gorredijk </name>
</wpt>
<wpt lat="51.6333572801" lon="4.86317151617">
  <name>aldi Loevensteinlaan 165-173 4902 WT Oosterhout </name>
</wpt>
<wpt lat="51.9590907962" lon="4.4938111394">
  <name>aldi Argonautenweg 14 3054 RP Rotterdam </name>
</wpt>
<wpt lat="51.6622517297" lon="5.03100291426">
  <name>aldi Jan de Rooijstraat 15a 5171 DR Kaatsheuvel </name>
</wpt>
<wpt lat="52.0231197131" lon="4.17296017006">
  <name>aldi Molenbrink 68 2681 EZ Monster </name>
</wpt>
<wpt lat="51.6492911248" lon="4.60163979995">
  <name>aldi De Donk 12-14 4761 JK Zevenbergen </name>
</wpt>
<wpt lat="53.0280799465" lon="5.65833369369">
  <name>aldi Boschplein 3 8607 CD Sneek </name>
</wpt>
<wpt lat="51.3470110423" lon="5.88831720797">
  <name>aldi Zonnedauw 6 5768 GB Meijel </name>
</wpt>
<wpt lat="52.3203381403" lon="6.91484785504">
  <name>aldi Henegouwenlaan 56 7577 MH Oldenzaal </name>
</wpt>
<wpt lat="52.2570381527" lon="6.16409417842">
  <name>aldi Beestenmarkt 3 7413 ZA Deventer </name>
</wpt>
<wpt lat="52.3249499405" lon="5.5979712275">
  <name>aldi Tonselsedreef 349 3845 DT Harderwijk </name>
</wpt>
<wpt lat="53.1382176535" lon="6.42662414162">
  <name>aldi Padkamp 23 9301 AW Roden </name>
</wpt>
<wpt lat="52.0601705295" lon="4.54069277472">
  <name>aldi Oosterheemplein 403 2721 NG Zoetermeer </name>
</wpt>
<wpt lat="51.4635202295" lon="3.60252946864">
  <name>aldi Vlissingsestraat 1 4388 HA Oost-Souburg </name>
</wpt>
<wpt lat="50.9991814115" lon="5.85854966281">
  <name>aldi Brugstraat 3a 6131 AE Sittard </name>
</wpt>
<wpt lat="51.1031016682" lon="5.86178722059">
  <name>aldi Palmbrugweg 4 6101 AJ Echt </name>
</wpt>
<wpt lat="51.485450267" lon="5.14220403083">
  <name>aldi Bloemenstraat 11 5081 CR Hilvarenbeek </name>
</wpt>
<wpt lat="52.2079180237" lon="6.88898336566">
  <name>aldi Industriestraat 118 7543 CJ Enschede </name>
</wpt>
<wpt lat="52.4323801612" lon="6.07037587387">
  <name>aldi Stationsweg  1-5 8191 AG Wapenveld </name>
</wpt>
<wpt lat="52.6349315808" lon="4.75277978904">
  <name>aldi Oosterwezenstraat  19 1823 CN Alkmaar </name>
</wpt>
<wpt lat="51.5449806452" lon="5.18227780159">
  <name>aldi Raadhuisstraat 1 5066 AP Moergestel </name>
</wpt>
<wpt lat="51.9858111001" lon="5.84789270178">
  <name>aldi Jacobaweg 3 6862 HE Oosterbeek </name>
</wpt>
<wpt lat="51.5656081077" lon="4.79423851507">
  <name>aldi Allerheiligenweg 85 4834 TN Breda </name>
</wpt>
<wpt lat="52.1654187456" lon="6.40989675975">
  <name>aldi Hanzeweg 17 7241 CS Lochem </name>
</wpt>
<wpt lat="51.535572446" lon="4.21852879583">
  <name>aldi Terreplein  8 4691 AA Tholen </name>
</wpt>
<wpt lat="51.5806883589" lon="4.64337731568">
  <name>aldi Concordialaan 195-197 4871 ZA Etten-Leur </name>
</wpt>
<wpt lat="51.6941604089" lon="5.22184795225">
  <name>aldi Oliemaat 6 5251 AG Vlijmen </name>
</wpt>
<wpt lat="52.3430407045" lon="5.6354909249">
  <name>aldi P.C. Hooftplein  20 3842 HB Harderwijk </name>
</wpt>
<wpt lat="51.9184285505" lon="4.35757290932">
  <name>aldi Van Hogendorplaan 43 3135 BC Vlaardingen </name>
</wpt>
<wpt lat="51.5465689958" lon="4.58948996505">
  <name>aldi Kanariestraat  13 4711 JR Sint Willebrord </name>
</wpt>
<wpt lat="52.8974619248" lon="4.75476728979">
  <name>aldi Schoolweg 63 1787 AV Julianadorp </name>
</wpt>
<wpt lat="53.1703377252" lon="5.41594853446">
  <name>aldi Westerzeedijk 1 8862 RZ Harlingen </name>
</wpt>
<wpt lat="51.9513481839" lon="5.23015768389">
  <name>aldi Lanxmeersestraat 17 4103 XL Culemborg </name>
</wpt>
<wpt lat="52.4495116419" lon="4.59511971831">
  <name>aldi Zeewijkplein  111 1974 PA IJmuiden </name>
</wpt>
<wpt lat="51.9330088783" lon="6.34793350111">
  <name>aldi Hoofdstraat 4 7011 AB Gaanderen </name>
</wpt>
<wpt lat="52.9766393055" lon="5.44451098866">
  <name>aldi Hearewei 6 8711 GD Workum </name>
</wpt>
<wpt lat="52.0821884271" lon="5.41617336486">
  <name>aldi Dorpsstraat 25 3931 ED Woudenberg </name>
</wpt>
<wpt lat="51.945261785" lon="5.92618764079">
  <name>aldi Brink 13 6852 EE Huissen </name>
</wpt>
<wpt lat="52.3619972889" lon="4.79902290602">
  <name>aldi Osdorper Ban 90 1068 MK Amsterdam </name>
</wpt>
<wpt lat="52.3711403431" lon="4.86213729632">
  <name>aldi Admiraal de Ruijterweg 56c 1056 GL Amsterdam </name>
</wpt>
<wpt lat="52.7162006019" lon="4.93171780897">
  <name>aldi Koningspade 16b 1718 MN Hoogwoud </name>
</wpt>
<wpt lat="52.4644777314" lon="5.99631673962">
  <name>aldi Zuiderzeestraatweg  510 8091 CT Wezep </name>
</wpt>
<wpt lat="52.0796019008" lon="5.48489052877">
  <name>aldi Dorpsstraat 238 3925 KJ Scherpenzeel </name>
</wpt>
<wpt lat="52.3026505367" lon="6.52199719793">
  <name>aldi A. Baanstraat 20 7461 DV Rijssen </name>
</wpt>
<wpt lat="52.655808544" lon="4.83852111095">
  <name>aldi Rustenburgerweg  108 1703 RZ Heerhugowaard </name>
</wpt>
<wpt lat="52.5025194261" lon="5.47307344287">
  <name>aldi Tjalk  1502/3 8232 LK Lelystad </name>
</wpt>
<wpt lat="52.3910398475" lon="4.64734332396">
  <name>aldi Werfstraat 7 2021 BP Haarlem </name>
</wpt>
<wpt lat="52.3864898277" lon="6.27790332765">
  <name>aldi Molenhof  30 8102 EX Raalte </name>
</wpt>
<wpt lat="52.1007097638" lon="4.27348633917">
  <name>aldi Westduinweg 1245 2583 AV Scheveningen </name>
</wpt>
<wpt lat="51.3244693676" lon="6.08536756504">
  <name>aldi Diepenbroeklaan 1-3 5991 PT Baarlo </name>
</wpt>
<wpt lat="52.695968373" lon="4.80843880323">
  <name>aldi Voorburggracht  224 1722 GE Zuid-Scharwoude </name>
</wpt>
<wpt lat="51.3097315062" lon="3.38132333323">
  <name>aldi Sint Annastraat 17 4524 JB Sluis </name>
</wpt>
<wpt lat="52.5668622813" lon="5.8962312381">
  <name>aldi Industrieweg  12a 8263 AD Kampen </name>
</wpt>
<wpt lat="52.1539323404" lon="6.74438144464">
  <name>aldi Jonkheer Von Heijdenstraat 22 7481 ED Haaksbergen </name>
</wpt>
<wpt lat="51.8048685922" lon="5.58351013607">
  <name>aldi Lietingstraat 21 5368 AA Haren </name>
</wpt>
<wpt lat="51.8907911368" lon="4.47997057988">
  <name>aldi Ebenhaëzerstraat 15 3083 RC Rotterdam </name>
</wpt>
<wpt lat="50.9498307826" lon="5.77679233562">
  <name>aldi Koolweg  61 6181 BL Elsloo </name>
</wpt>
<wpt lat="53.2057196191" lon="5.81327781317">
  <name>aldi Cambuurplein 50 8921 RG Leeuwarden </name>
</wpt>
<wpt lat="53.23558773" lon="6.55106327223">
  <name>aldi Prunusstraat 59-61 9741 LB Groningen </name>
</wpt>
<wpt lat="52.0571292937" lon="4.49659004316">
  <name>aldi Leidsewallen 26 2712 BW Zoetermeer </name>
</wpt>
<wpt lat="53.2193289655" lon="6.56566825511">
  <name>aldi Rode Weeshuisstraat 4 9712 ET Groningen </name>
</wpt>
<wpt lat="53.0094320178" lon="6.56889681968">
  <name>aldi Groningerstraat 340 9402 LT Assen </name>
</wpt>
<wpt lat="52.8748496468" lon="7.0576781125">
  <name>aldi Marktstraat  2 9561 KC Ter Apel </name>
</wpt>
<wpt lat="53.1070777404" lon="6.10413640696">
  <name>aldi Noordkade 72-74 9203 CG Drachten </name>
</wpt>
<wpt lat="52.3924503133" lon="4.95439869987">
  <name>aldi Waterlandplein 26 1024 LW Amsterdam </name>
</wpt>
<wpt lat="52.9546209898" lon="6.355379884">
  <name>aldi Vaart Zuidzijde 55 8426 AE Appelscha </name>
</wpt>
<wpt lat="51.4914812789" lon="3.60446301009">
  <name>aldi Westerscheldeplein 2 4335 NL Middelburg </name>
</wpt>
<wpt lat="52.675077873" lon="4.85254153478">
  <name>aldi Berckheidelaan 4 1701 VG Heerhugowaard </name>
</wpt>
<wpt lat="52.4062617148" lon="6.78090289506">
  <name>aldi Waldeckstraat 6 7651 EE Tubbergen </name>
</wpt>
<wpt lat="51.8828313386" lon="5.51464008749">
  <name>aldi Dorpsplein 4 6658 CL Beneden-Leeuwen </name>
</wpt>
<wpt lat="52.315879793" lon="6.9303881324">
  <name>aldi Ootmarsumsestraat 16-26 7573 GL Oldenzaal </name>
</wpt>
<wpt lat="52.2563995764" lon="6.78959933499">
  <name>aldi Dikkersplein 11 7553 CZ Hengelo </name>
</wpt>
<wpt lat="52.8740517341" lon="5.99814236248">
  <name>aldi Van der Sandeplein 2 8471 RX Wolvega </name>
</wpt>
<wpt lat="52.6245275763" lon="6.04595929227">
  <name>aldi Klaas Fuitestraat 28 8281 BZ Genemuiden </name>
</wpt>
<wpt lat="52.3258018891" lon="4.8597181212">
  <name>aldi Bolestein 41-47 1081 CR Amsterdam </name>
</wpt>
<wpt lat="51.5701416521" lon="5.06049166972">
  <name>aldi Bernardusplein 24 5042 HP Tilburg </name>
</wpt>
<wpt lat="52.6569923282" lon="6.74966945569">
  <name>aldi E D S Plein 2 7741 KE Coevorden </name>
</wpt>
<wpt lat="52.2103593401" lon="6.86214760894">
  <name>aldi Nic. Maesstraat 51 7545 CD Enschede </name>
</wpt>
<wpt lat="51.8903582133" lon="5.0807533855">
  <name>aldi Europaplein 36 4142 CD Leerdam </name>
</wpt>
<wpt lat="50.9232905871" lon="5.93839143499">
  <name>aldi Prof. v.d. Hoffstraat 11 6431 VB Hoensbroek </name>
</wpt>
<wpt lat="51.9943783888" lon="5.10255294123">
  <name>aldi Vijfheerenlanden 545-554 4131 GT Vianen ZH </name>
</wpt>
<wpt lat="51.4735090865" lon="5.54521702209">
  <name>aldi Parkhof 13 5671 EX Nuenen </name>
</wpt>
<wpt lat="51.8901084479" lon="5.60985126591">
  <name>aldi Marktpassage 5 6651 VD Druten </name>
</wpt>
<wpt lat="52.3377714067" lon="6.11300371799">
  <name>aldi Hendrik Droststraat 37 8121 BG Olst </name>
</wpt>
<wpt lat="51.5041902699" lon="3.59725045081">
  <name>aldi Euromarkt 8 4334 ER Middelburg </name>
</wpt>
<wpt lat="52.3468095979" lon="5.9861094394">
  <name>aldi Ratelplein 2a 8161 HM Epe </name>
</wpt>
<wpt lat="52.0017592304" lon="4.35417347365">
  <name>aldi Papsouwselaan 1 2624 AE Delft </name>
</wpt>
<wpt lat="51.9275078428" lon="4.23718971915">
  <name>aldi Koningshoek 96.001 3144 BA Maassluis </name>
</wpt>
<wpt lat="52.1582083659" lon="5.37734965113">
  <name>aldi Groningerstraat 168 3812 EG Amersfoort </name>
</wpt>
<wpt lat="52.2364504477" lon="6.10185213008">
  <name>aldi Duistervoordseweg 22 7391 CD Twello </name>
</wpt>
<wpt lat="51.7125080283" lon="5.31480183344">
  <name>aldi Rompertpassage 48 5233 AR 's-Hertogenbosch </name>
</wpt>
<wpt lat="51.9312011527" lon="5.71130373628">
  <name>aldi Hoofdstraat 27 6671 CD Zetten </name>
</wpt>
<wpt lat="51.383491341" lon="6.17358202137">
  <name>aldi Van Postelstraat 120 5914 PR Venlo </name>
</wpt>
<wpt lat="51.9231875045" lon="6.5732765159">
  <name>aldi Admiraal de Ruyterstraat 12 7122 WJ Aalten </name>
</wpt>
<wpt lat="52.053772635" lon="5.28713870084">
  <name>aldi Traay 99-101 3971 GD Driebergen </name>
</wpt>
<wpt lat="53.2840420324" lon="6.1536620478">
  <name>aldi W. Loréweg  2A 9291 MC Kollum </name>
</wpt>
<wpt lat="52.5259600688" lon="5.71632195084">
  <name>aldi De Schans 51 8254 KN Dronten </name>
</wpt>
<wpt lat="51.8819320259" lon="5.43434865452">
  <name>aldi Kwelkade 53 4001 RL Tiel </name>
</wpt>
<wpt lat="52.0668826333" lon="4.24522066109">
  <name>aldi De Savornin Lohmanplein 26 - 30 2566 AE Den Haag </name>
</wpt>
<wpt lat="51.6095996" lon="5.14220403083">
  <name>aldi Tongerloplein 19 5071 CX Udenhout </name>
</wpt>
<wpt lat="51.8370601456" lon="5.84957443319">
  <name>aldi Willemsweg 40 6531 DL Nijmegen </name>
</wpt>
<wpt lat="52.9464716413" lon="6.44382816394">
  <name>aldi Veenhoopsweg 34-36 9422 AC Smilde </name>
</wpt>
<wpt lat="51.1640098745" lon="5.84103987115">
  <name>aldi Akker 5 6017 BN Thorn </name>
</wpt>
<wpt lat="53.1880915965" lon="5.82978935786">
  <name>aldi Stinzenflora 161 8935 LG Leeuwarden </name>
</wpt>
<wpt lat="52.0985497056" lon="5.24073370598">
  <name>aldi J. van Oldenbarneveltlaan 110 3705 HK Zeist </name>
</wpt>
<wpt lat="50.892021405" lon="6.01529242551">
  <name>aldi Hoofdstraat 144 6372 EN Schaesberg </name>
</wpt>
<wpt lat="52.364940845" lon="6.46832568449">
  <name>aldi Grotestraat  90-96 7443 BL Nijverdal </name>
</wpt>
<wpt lat="52.6640125463" lon="5.20022826085">
  <name>aldi Twijver 48-50 1606 BW Venhuizen </name>
</wpt>
<wpt lat="51.9591517563" lon="5.89543084187">
  <name>aldi Kronenburgpassage 124 6831 ES Arnhem </name>
</wpt>
<wpt lat="52.0902896951" lon="4.9022200603">
  <name>aldi Frederik Hendriklaan 30 3445 XN Woerden </name>
</wpt>
<wpt lat="50.9164873302" lon="6.0504559003">
  <name>aldi Korte Hovenstraat 10 6374 GG Landgraaf </name>
</wpt>
<wpt lat="52.5476491686" lon="4.6623170287">
  <name>aldi Bakkerspleintje 77 1901 EZ Castricum </name>
</wpt>
<wpt lat="51.9321826569" lon="4.47121118744">
  <name>aldi Eudokiaplein 8-10 3037 EP Rotterdam </name>
</wpt>
<wpt lat="50.9431390716" lon="5.8862038022">
  <name>aldi Scalaplein 1 6365 BP Schinnen </name>
</wpt>
<wpt lat="52.581389548" lon="6.60414123342">
  <name>aldi Erve Hamhuijs 1 7773 DP Hardenberg </name>
</wpt>
<wpt lat="52.6433796027" lon="5.05226287703">
  <name>aldi Dubbele Buurt 38-42 1621 JW Hoorn </name>
</wpt>
<wpt lat="53.4050798204" lon="6.67814640837">
  <name>aldi Molenerf 11 9981 EA Uithuizen </name>
</wpt>
<wpt lat="51.8531611849" lon="4.31759806394">
  <name>aldi Hoogwerfsingel 2 c/d 3202 SP Spijkenisse </name>
</wpt>
<wpt lat="53.0701123394" lon="6.57901418775">
  <name>aldi Asserstraat 9a 9481 BM Vries </name>
</wpt>
<wpt lat="53.148062237" lon="7.03482635049">
  <name>aldi Heemskerkstraat 55 9675 BN Winschoten </name>
</wpt>
<wpt lat="51.7460573348" lon="5.11222064849">
  <name>aldi Parallelweg 2 4261 GA Wijk en Aalburg </name>
</wpt>
<wpt lat="51.9063791532" lon="5.56500209743">
  <name>aldi Dokter M. van Drielplein 3 4051 AX Ochten </name>
</wpt>
<wpt lat="51.815082771" lon="5.86147245803">
  <name>aldi Kann. Mijlinckstraat 7 6525 WS Nijmegen </name>
</wpt>
<wpt lat="51.5916516563" lon="4.52605181897">
  <name>aldi Oost-Vaardeke 41 4731 JV Oudenbosch </name>
</wpt>
<wpt lat="52.6706498972" lon="4.70267858237">
  <name>aldi Jan Oldenburglaan 21 1861 JS Bergen </name>
</wpt>
<wpt lat="53.215392555" lon="5.7972788818">
  <name>aldi Bilgaardpassage 41 8918 HT Leeuwarden </name>
</wpt>
<wpt lat="53.179177851" lon="6.15869824879">
  <name>aldi Gedempte Vaart 29 9231 AS Surhuisterveen </name>
</wpt>
<wpt lat="52.7399681557" lon="4.89835297739">
  <name>aldi Dorpsstraat 117 1733 AG Nieuwe-Niedorp </name>
</wpt>
<wpt lat="53.1853217434" lon="5.78980551926">
  <name>aldi W. Alexanderplein 24 8931 DX Leeuwarden </name>
</wpt>
<wpt lat="52.3500892627" lon="4.61926650342">
  <name>aldi Kerklaan 27 2101 HK Heemstede </name>
</wpt>
<wpt lat="52.0536122612" lon="4.23623643825">
  <name>aldi Loosduinsehoofdstraat 280 - 282 2552 AN 's-Gravenhage </name>
</wpt>
<wpt lat="51.8060975299" lon="4.8991983397">
  <name>aldi Floreffestraat 26 4251 GP Werkendam </name>
</wpt>
<wpt lat="52.0888695928" lon="5.21068737113">
  <name>aldi Pijlstaartlaan 3 3704 HS Zeist </name>
</wpt>
<wpt lat="52.2247620286" lon="5.95662068394">
  <name>aldi Koninginnelaan 40c 7315 BT Apeldoorn </name>
</wpt>
<wpt lat="53.3023023721" lon="6.5952829156">
  <name>aldi Stationsweg 32 9781 CJ Bedum </name>
</wpt>
<wpt lat="53.1030824277" lon="7.00702831965">
  <name>aldi De Helling 57 9665 JW Oude Pekela </name>
</wpt>
<wpt lat="51.5427378445" lon="4.47636430024">
  <name>aldi Philipslaan 82 4702 NS Roosendaal </name>
</wpt>
<wpt lat="51.5193524412" lon="5.96416599221">
  <name>aldi Veltumse Kleffen 50 5801 SH Venray </name>
</wpt>
<wpt lat="52.3753625322" lon="7.00648872669">
  <name>aldi Eurowerft 10 7591 DG Denekamp </name>
</wpt>
<wpt lat="52.1448989209" lon="4.40322247404">
  <name>aldi Hofcampweg 57 2241 KD Wassenaar </name>
</wpt>
<wpt lat="51.5615996532" lon="5.10641103092">
  <name>aldi Spoordijk 72-74 5018 GH Tilburg </name>
</wpt>
<wpt lat="50.9745607857" lon="5.78067740496">
  <name>aldi Mauritsweg 128 6171 AK Stein </name>
</wpt>
<wpt lat="52.3710579816" lon="4.64734332396">
  <name>aldi Merovingenstraat 82 2033 LZ Haarlem </name>
</wpt>
<wpt lat="52.4931900428" lon="4.78979586634">
  <name>aldi Marktstraat 44 1521 DZ Wormerveer </name>
</wpt>
<wpt lat="50.9299681502" lon="5.97442725174">
  <name>aldi Akerstraat 128 6445 CT Brunssum </name>
</wpt>
<wpt lat="52.3496497908" lon="6.66138305363">
  <name>aldi Bornerbroeksestraat 81 7601 BD Almelo </name>
</wpt>
<wpt lat="51.8056693518" lon="4.67572591384">
  <name>aldi Dubbeldamseweg Zuid 72 3314 JA Dordrecht </name>
</wpt>
<wpt lat="52.0781704042" lon="5.08848755131">
  <name>aldi Van Heuven Goedhartlaan 77a 3527 CG Utrecht </name>
</wpt>
<wpt lat="51.4417590267" lon="5.50338058099">
  <name>aldi Tongelresestraat 227 5613 DG Eindhoven </name>
</wpt>
<wpt lat="52.0841282234" lon="6.1537789596">
  <name>aldi Arnhemsestraat 50 6971 AS Brummen </name>
</wpt>
<wpt lat="51.9773418848" lon="4.14178068998">
  <name>aldi Mercatorweg 11-19 3151 CJ Hoek van Holland </name>
</wpt>
<wpt lat="52.5361686822" lon="6.09845269441">
  <name>aldi Rijnlaan  125 8032 MX Zwolle </name>
</wpt>
<wpt lat="51.6989486734" lon="5.67539382455">
  <name>aldi Kerkstraat 33b 5411 EA Zeeland </name>
</wpt>
<wpt lat="52.3499079811" lon="4.88909895806">
  <name>aldi Pijnackerstraat 36 1072 JV Amsterdam </name>
</wpt>
<wpt lat="51.493519435" lon="4.31114093481">
  <name>aldi Holleweg 107-109 4623 XG Bergen op Zoom </name>
</wpt>
<wpt lat="53.1912600028" lon="5.99477889968">
  <name>aldi Markt 88 9251 JS Burgum </name>
</wpt>
<wpt lat="52.812758614" lon="7.04876583538">
  <name>aldi Hoofdkanaal WZ  13-15 7881 AA Emmer Compascuum </name>
</wpt>
<wpt lat="52.6627307724" lon="5.62240579553">
  <name>aldi Nagel 34 8321 RG Urk </name>
</wpt>
<wpt lat="52.0061993306" lon="6.14643150208">
  <name>aldi Burgemeester Keiserplein 49 6982 BM Doesburg </name>
</wpt>
<wpt lat="51.4195107477" lon="5.44110255978">
  <name>aldi Kastelenplein 60 5653 LP Eindhoven </name>
</wpt>
<wpt lat="53.1629408058" lon="6.74471419364">
  <name>aldi M. Veningastraat 38 9601 KG Hoogezand </name>
</wpt>
<wpt lat="51.4238793971" lon="5.56929186149">
  <name>aldi St. Jozefplein 30-32 5666 RM Geldrop </name>
</wpt>
<wpt lat="52.1190687958" lon="6.52480308134">
  <name>aldi Stationsweg 5 7271 AG Borculo </name>
</wpt>
<wpt lat="51.850889165" lon="4.36954287989">
  <name>aldi In de Fuik 25 - 27 3192 HD Hoogvliet </name>
</wpt>
<wpt lat="50.984027883" lon="5.81462679558">
  <name>aldi Bloemenmarkt 21 6163 CG Geleen </name>
</wpt>
<wpt lat="51.6441181225" lon="3.98600919462">
  <name>aldi Rijksweg 26A 4306 AW Nieuwerkerk </name>
</wpt>
<wpt lat="53.3346218164" lon="6.52056727658">
  <name>aldi Onderdendamsterweg 33B 9951 TD Winsum </name>
</wpt>
<wpt lat="51.2832679229" lon="5.75324809598">
  <name>aldi Dr. Schmidtstraat 9 6031 EX Nederweert </name>
</wpt>
<wpt lat="52.0305400796" lon="5.65471842083">
  <name>aldi Verlengde Blokkenweg 16 6717 AD Ede </name>
</wpt>
<wpt lat="51.248340328" lon="5.71930769857">
  <name>aldi Dr. Schaepmanstraat 17 6004 AD Weert </name>
</wpt>
<wpt lat="53.3189325366" lon="6.85812764136">
  <name>aldi Overdiep 2 9902 BX Appingedam </name>
</wpt>
<wpt lat="51.8275901791" lon="4.65675022796">
  <name>aldi Troelstraplein 1-2 3332 JB Zwijndrecht </name>
</wpt>
<wpt lat="51.9610414797" lon="6.73219563688">
  <name>aldi Kottenseweg 94 7101 JS Winterswijk </name>
</wpt>
<wpt lat="52.4123786139" lon="6.62605770095">
  <name>aldi Westeinde  31 7671 EK Vriezenveen </name>
</wpt>
<wpt lat="52.2841581456" lon="6.82996988188">
  <name>aldi Christiaan Langefeldstraat 77 7558 CZ Hengelo (Ov.) </name>
</wpt>
<wpt lat="51.0324090071" lon="5.81063380765">
  <name>aldi Kerkstraat 43-2 6121 LB Born </name>
</wpt>
<wpt lat="52.3779812946" lon="4.61824127679">
  <name>aldi Menno Simonszweg 200 2014 SC Haarlem </name>
</wpt>
<wpt lat="52.1452686815" lon="4.67409814174">
  <name>aldi Ridderhof 55 2402 EM Alphen aan den Rijn </name>
</wpt>
<wpt lat="52.9909709109" lon="6.94839255095">
  <name>aldi Hemenweg 18 9501 XZ Stadskanaal </name>
</wpt>
<wpt lat="51.9739903143" lon="5.67254297506">
  <name>aldi Churchillweg 92 6706 AD Wageningen </name>
</wpt>
<wpt lat="52.988691816" lon="6.5807228988">
  <name>aldi Bremstraat 5 9404 GA Assen </name>
</wpt>
<wpt lat="52.2423485709" lon="4.81632585371">
  <name>aldi Sportlaan 17 1421 TE Uithoorn </name>
</wpt>
<wpt lat="51.1902321265" lon="5.99858303007">
  <name>aldi Nassaustraat 78 6043 ED Roermond </name>
</wpt>
<wpt lat="51.89014175" lon="5.92141224307">
  <name>aldi Van der Mondeweg  89 6685 BM Haalderen </name>
</wpt>
<wpt lat="51.5172594775" lon="5.39181973577">
  <name>aldi Secretaris L Jansenstraat 34 5682 AC Best </name>
</wpt>
<wpt lat="52.2925197307" lon="6.57626226363">
  <name>aldi Dorpsstraat 120-122 7468 HM Enter </name>
</wpt>
<wpt lat="52.0977873072" lon="4.40195443057">
  <name>aldi Prins Frederiklaan 203 2263 HA Leidschendam </name>
</wpt>
<wpt lat="52.0870681528" lon="5.61907830559">
  <name>aldi Dorpsstraat 102-104 6741 AS Lunteren </name>
</wpt>
<wpt lat="52.5069480001" lon="4.67704791661">
  <name>aldi Gerrit van Assendelftstraat 32 1964 NL Heemskerk </name>
</wpt>
<wpt lat="51.9584091453" lon="5.57171103661">
  <name>aldi Achterbergsestraatweg 25 3911 CR Rhenen </name>
</wpt>
<wpt lat="51.6943722404" lon="5.26772234737">
  <name>aldi Boschmeersingel 115 5223 HH 's-Hertogenbosch </name>
</wpt>
<wpt lat="53.1970304271" lon="5.78303362756">
  <name>aldi Snekertrekweg 27 8912 AA Leeuwarden </name>
</wpt>
<wpt lat="51.4556923228" lon="6.05479962366">
  <name>aldi Loevestraat  55 - 57 5961 TW Horst </name>
</wpt>
<wpt lat="52.1360127071" lon="5.58648689059">
  <name>aldi Theaterplein 7 3772 KX Barneveld </name>
</wpt>
<wpt lat="52.227130807" lon="6.89045825309">
  <name>aldi Deurningerstraat 101 7514 BG Enschede </name>
</wpt>
<wpt lat="51.2769393713" lon="4.04495972589">
  <name>aldi Stationsplein 28 4561 GC Hulst </name>
</wpt>
<wpt lat="51.5880701564" lon="4.31775094861">
  <name>aldi Westdam 81 4651 BE Steenbergen </name>
</wpt>
<wpt lat="52.7037016466" lon="5.29186013928">
  <name>aldi Torenstraat 10-12 1601 HH Enkhuizen </name>
</wpt>
<wpt lat="51.8275679467" lon="4.77329331487">
  <name>aldi Rijnstraat 319 3363 EJ Sliedrecht </name>
</wpt>
<wpt lat="51.6510488067" lon="4.85264046016">
  <name>aldi Patrijslaan 2B 4901 AT Oosterhout </name>
</wpt>
<wpt lat="51.9790591213" lon="5.93258181741">
  <name>aldi Johan de Wittlaan 258 6828 WS Arnhem </name>
</wpt>
<wpt lat="51.689750744" lon="4.21361849986">
  <name>aldi Dabbehof 32 3255 XN Oude-Tonge </name>
</wpt>
<wpt lat="52.7050476085" lon="6.18881652937">
  <name>aldi Van Oldenbarneveltplein 3 7942 HS Meppel </name>
</wpt>
<wpt lat="51.4804210139" lon="5.65889127308">
  <name>aldi Noord Koninginnewal 42 5701 NK Helmond </name>
</wpt>
<wpt lat="52.2262604334" lon="5.17244821644">
  <name>aldi Noordse bosje 23 1211 BD Hilversum </name>
</wpt>
<wpt lat="52.509870943" lon="4.9529597853">
  <name>aldi Wagenweg 16a 1442 BX Purmerend </name>
</wpt>
<wpt lat="51.9606591081" lon="4.53499107573">
  <name>aldi Binnenhof 39 3069 KV Rotterdam </name>
</wpt>
<wpt lat="51.9924014676" lon="4.47945796657">
  <name>aldi Molenwerfstraat 27 2651 CK Berkel en Rodenrijs </name>
</wpt>
<wpt lat="52.7802083636" lon="6.92089129624">
  <name>aldi Peyserhof  2 7824 CP Emmen </name>
</wpt>
<wpt lat="52.3136422041" lon="4.97208835586">
  <name>aldi Karspeldreef 1235 1104 SE Amsterdam </name>
</wpt>
<wpt lat="53.2486817747" lon="6.60197386835">
  <name>aldi Claremaheerd 45 9736 LC Groningen </name>
</wpt>
<wpt lat="51.9374502506" lon="4.57968735955">
  <name>aldi Bermweg 69 2906 LB Capelle aan den IJssel </name>
</wpt>
<wpt lat="50.8635921275" lon="5.65522204093">
  <name>aldi Malbergsingel 54 6218 AV Maastricht </name>
</wpt>
<wpt lat="52.1261088375" lon="4.65103953576">
  <name>aldi Euromarkt 89 - 97 2408 BE Alphen aan den Rijn </name>
</wpt>
<wpt lat="52.0961795982" lon="5.10801182338">
  <name>aldi Amsterdamse Straatweg 27-35 3513 AA Utrecht </name>
</wpt>
<wpt lat="53.0258893544" lon="7.11279753372">
  <name>aldi Wilhelminastraat 25 9541 AM Vlagtwedde </name>
</wpt>
<wpt lat="51.7163415847" lon="5.32802186105">
  <name>aldi Manis Krijgsmanhof 176 5233 BV 's-Hertogenbosch </name>
</wpt>
<wpt lat="52.2151203476" lon="5.49082605137">
  <name>aldi Hoefslag 53 3862 KA Nijkerk GLD </name>
</wpt>
<wpt lat="52.9669179633" lon="5.79861887099">
  <name>aldi Sinnebuorren 10 8501 CB Joure </name>
</wpt>
<wpt lat="53.2625410581" lon="5.75931851682">
  <name>aldi Buterhoek 6 9051 BW Stiens </name>
</wpt>
<wpt lat="53.0412698263" lon="5.66748878764">
  <name>aldi Hugo de Grootstraat 19 8603 BP Sneek </name>
</wpt>
<wpt lat="51.9418911832" lon="5.89390199514">
  <name>aldi Op het Toneel 3 6836 ND Arnhem </name>
</wpt>
<wpt lat="52.957622424" lon="5.92374148603">
  <name>aldi Molenplein  28 8442 LM Heerenveen </name>
</wpt>
<wpt lat="51.9244908596" lon="4.50978309112">
  <name>aldi Lusthofstraat 81 3061 WL Rotterdam </name>
</wpt>
<wpt lat="52.3586580924" lon="4.89078068947">
  <name>aldi Nw. Weteringstraat 24-28 1017 ZX Amsterdam </name>
</wpt>
<wpt lat="52.55715836" lon="5.88457603009">
  <name>aldi Zambonistraat 4F 8263 CE Kampen </name>
</wpt>
<wpt lat="51.966937348" lon="5.90821020189">
  <name>aldi Middelgraaflaan 20 6832 AR Arnhem </name>
</wpt>
<wpt lat="53.1694913493" lon="6.37474227818">
  <name>aldi Industriepark 5-V 9351 PA Leek </name>
</wpt>
<wpt lat="51.503938364" lon="5.74412897489">
  <name>aldi Dorpstraat 54 5761 BP Bakel </name>
</wpt>
<wpt lat="50.8641427193" lon="6.0042577494">
  <name>aldi Heerlerbaan 239a 6418 CE Heerlen </name>
</wpt>
<wpt lat="51.9326983539" lon="4.36910221231">
  <name>aldi Borodinlaan 74 3122 HB Schiedam </name>
</wpt>
<wpt lat="51.3743304834" lon="6.14099959958">
  <name>aldi Burg. Coenengrachtstraat  43A - 47 5922 BJ Blerick-Venlo </name>
</wpt>
<wpt lat="52.6040398524" lon="6.45777664205">
  <name>aldi Julianastraat  81 7701 GK Dedemsvaart </name>
</wpt>
<wpt lat="51.9177795632" lon="5.84396266637">
  <name>aldi Europaplein 2 6662 DD Elst </name>
</wpt>
<wpt lat="51.986979715" lon="4.66833349024">
  <name>aldi De Smidse 17 2841 XW Moordrecht </name>
</wpt>
<wpt lat="52.2624491675" lon="4.61869993081">
  <name>aldi Kalslagerring  23 2151 TA Nieuw Vennep </name>
</wpt>
<wpt lat="52.7887098851" lon="4.80228744345">
  <name>aldi Langestraat  7 1741 HB Schagen </name>
</wpt>
<wpt lat="51.6864501827" lon="5.13593575924">
  <name>aldi Grotestraat 156a 5151 BP Drunen </name>
</wpt>
<wpt lat="51.3485725922" lon="5.55090073464">
  <name>aldi Margrietlaan 3c 5595 EA Leende </name>
</wpt>
<wpt lat="51.617429004" lon="5.43694769396">
  <name>aldi Hoofdstraat 154 5481 AH Schijndel </name>
</wpt>
<wpt lat="52.1412894553" lon="5.24341368436">
  <name>aldi Dolderseweg 138e 3734 BC Den Dolder </name>
</wpt>
<wpt lat="51.8111074676" lon="5.71428049079">
  <name>aldi Homberg 25-31 6601 XW Wijchen </name>
</wpt>
<wpt lat="52.0505705789" lon="5.64350388041">
  <name>aldi Parkweide 28 6718 DJ Ede </name>
</wpt>
<wpt lat="52.7074397216" lon="5.75760980576">
  <name>aldi Zuiderkade 6 8301 AR Emmeloord </name>
</wpt>
<wpt lat="52.5749080741" lon="6.62145317433">
  <name>aldi Israël Emanuelplein  9 7772 BH Hardenberg </name>
</wpt>
<wpt lat="52.0809007095" lon="4.87936829829">
  <name>aldi Industrieweg 2  3442 AE Woerden </name>
</wpt>
<wpt lat="53.2770196418" lon="5.66086978062">
  <name>aldi Beuckelaerstraat 29 9076 DA St. Annaparochie </name>
</wpt>
<wpt lat="51.9098411895" lon="4.31772396896">
  <name>aldi Dr. Wiardi Beckmansingel 67 3132 CM Vlaardingen </name>
</wpt>
<wpt lat="51.6304712881" lon="5.22908749118">
  <name>aldi Vincent van Goghplein  5 5268 EC Helvoirt </name>
</wpt>
<wpt lat="52.1998215927" lon="5.97640575927">
  <name>aldi Mgr. Nolensstraat 43 7331 RC Apeldoorn </name>
</wpt>
<wpt lat="52.7153888779" lon="6.85768697377">
  <name>aldi Vaart Zuidzijde 49 7833 AC Nieuw-Amsterdam </name>
</wpt>
<wpt lat="50.949111229" lon="5.95927368268">
  <name>aldi Kennedylaan 92a 6441 JG Brunssum </name>
</wpt>
<wpt lat="51.2048787453" lon="6.02550871895">
  <name>aldi St. Wirosingel 194 6042 KZ Roermond </name>
</wpt>
<wpt lat="50.8590225325" lon="6.06755200403">
  <name>aldi Maria Gorettiplein  2 6462 XB Kerkrade </name>
</wpt>
<wpt lat="52.3683289868" lon="5.21893415025">
  <name>aldi Schippergarage 9 1315 SC Almere </name>
</wpt>
<wpt lat="51.8868114139" lon="4.67736267917">
  <name>aldi Planetenlaan 80a 2957 SN Nieuw-Lekkerland </name>
</wpt>
<wpt lat="52.0185927402" lon="5.53986605854">
  <name>aldi Dr. Slotemaker de Bruïnestraat 2 3904 CB Veenendaal </name>
</wpt>
<wpt lat="52.1028089528" lon="6.31631335344">
  <name>aldi De Bleek 4 7251 SG Vorden </name>
</wpt>
<wpt lat="52.1160205269" lon="5.12821957986">
  <name>aldi Euterpedreef 5 3561 CV Utrecht </name>
</wpt>
<wpt lat="52.056731153" lon="4.33738313927">
  <name>aldi Herenstraat 2 2282 BT Rijswijk </name>
</wpt>
<wpt lat="52.2209386638" lon="6.90612443547">
  <name>aldi Lipperkerkstraat 75 7511 CV Enschede </name>
</wpt>
<wpt lat="51.8196191923" lon="4.64228014332">
  <name>aldi Passage 34-42 3331 CM Zwijndrecht </name>
</wpt>
<wpt lat="52.3584878306" lon="6.5883401528">
  <name>aldi Schoolstraat 25 7642 AS Wierden </name>
</wpt>
<wpt lat="52.6996090136" lon="6.1962808987">
  <name>aldi Rembrandtplein 34 7944 GG Meppel </name>
</wpt>
<wpt lat="52.2066504702" lon="4.8604465717">
  <name>aldi Prinses Margrietlaan 34 3641 HD Mijdrecht </name>
</wpt>
<wpt lat="52.0877810012" lon="6.44861255489">
  <name>aldi Wildenborchseweg 2 7261 WZ Ruurlo </name>
</wpt>
<wpt lat="51.8735875449" lon="4.58629737335">
  <name>aldi Olmenlaan 14 - 22 2982 CP Ridderkerk </name>
</wpt>
<wpt lat="51.9344006665" lon="5.6284942028">
  <name>aldi Dorpsstraat 4 4043 KK Opheusden </name>
</wpt>
<wpt lat="52.2525183759" lon="5.61077756717">
  <name>aldi Bilderdijkstraat 46 3881 WD Putten </name>
</wpt>
<wpt lat="52.3589601683" lon="6.6411483175">
  <name>aldi Apollolaan 3a 7604 EH Almelo </name>
</wpt>
<wpt lat="51.3610686912" lon="5.16691738857">
  <name>aldi Kruisstraat 3 5541 CH Reusel </name>
</wpt>
<wpt lat="51.5874219921" lon="5.33523442033">
  <name>aldi Oosterhof 7-9 5283 BV Boxtel </name>
</wpt>
<wpt lat="53.1902685539" lon="6.57032674103">
  <name>aldi De Merodelaan 2 9721 XA Groningen </name>
</wpt>
<wpt lat="52.2917826544" lon="4.57925568518">
  <name>aldi Houttuin  8 2181 JG Hillegom </name>
</wpt>
<wpt lat="52.0292398061" lon="5.55551425448">
  <name>aldi Scheepjeshof 40 3901 CV Veenendaal </name>
</wpt>
<wpt lat="51.7094877593" lon="5.36656678508">
  <name>aldi Slauerhoffstraat (WC Molenhoek) 7 5242 EB Rosmalen </name>
</wpt>
<wpt lat="52.04091878" lon="4.26249662914">
  <name>aldi Langestede 4-6 2543 VG 's-Gravenhage </name>
</wpt>
<wpt lat="53.1752593127" lon="6.97277315968">
  <name>aldi Esborgstraat 3-5 9679 BS Scheemda </name>
</wpt>
<wpt lat="53.1069103766" lon="6.09551191276">
  <name>aldi Markt 67 9203 AA Drachten </name>
</wpt>
<wpt lat="50.8483489388" lon="5.67677877982">
  <name>aldi Volksplein  34b 6214 AM Maastricht </name>
</wpt>
<wpt lat="51.3262227567" lon="3.48354022696">
  <name>aldi Veerhoeklaan 5A 4501 EA Oostburg </name>
</wpt>
<wpt lat="51.8374991392" lon="4.95046866445">
  <name>aldi Gildenweg 133 4204 GG Gorinchem </name>
</wpt>
<wpt lat="52.4365581156" lon="6.23866592599">
  <name>aldi Marktstraat  24 8141 GC Heino </name>
</wpt>
<wpt lat="51.460242422" lon="5.48951304182">
  <name>aldi Cassandraplein 15 5631 BA Eindhoven </name>
</wpt>
<wpt lat="53.0353108148" lon="5.66712905899">
  <name>aldi Normandiaplein 6 8603 CS Sneek </name>
</wpt>
<wpt lat="53.1182788337" lon="6.09645620044">
  <name>aldi Ringweg 16-18 9201 GN Drachten </name>
</wpt>
<wpt lat="51.8559385594" lon="4.38938191452">
  <name>aldi Kikkerstraat 4 3171 GH Poortugaal </name>
</wpt>
<wpt lat="53.1642509945" lon="6.78598406213">
  <name>aldi Noorderstraat 93 9611 AC Sappemeer </name>
</wpt>
<wpt lat="52.5293522615" lon="6.43449320568">
  <name>aldi Slagenweg  1 7731 TJ Ommen </name>
</wpt>
<wpt lat="50.8593971994" lon="5.70070073454">
  <name>aldi Francois de Veyestraat 3 6221AB Maastricht </name>
</wpt>
<wpt lat="52.361338257" lon="6.47747178522">
  <name>aldi Bachlaan 30 7442JG Nijverdal </name>
</wpt>
<wpt lat="50.816648737" lon="5.89278683635">
  <name>aldi Looierstraat 20 6271BB Gulpen </name>
</wpt>
</gpx>
