<?xml version="1.0" encoding="utf-8" standalone="yes"?>
<gpx version="1.1" creator="Locus Android"
 xmlns="http://www.topografix.com/GPX/1/1"
 xmlns:xsi="http://www.w3.org/2001/XMLSchema-instance"
 xsi:schemaLocation="http://www.topografix.com/GPX/1/1 http://www.topografix.com/GPX/1/1/gpx.xsd"
 xmlns:gpxx="http://www.garmin.com/xmlschemas/GpxExtensions/v3"
 xmlns:gpxtrkx="http://www.garmin.com/xmlschemas/TrackStatsExtension/v1"
 xmlns:gpxtpx="http://www.garmin.com/xmlschemas/TrackPointExtension/v2"
 xmlns:locus="http://www.locusmap.eu">
<wpt lat="52.266747784" lon="6.19414051328">
  <name>aldi Timmermansweg 37 7433 BK Schalkhaar </name>
</wpt>
<wpt lat="53.4717011995" lon="7.38816980946">
  <name>aldi Ekelser Straße 11 26624 Südbrookmerland-Moordorf </name>
</wpt>
<wpt lat="51.3150999635" lon="6.46948580936">
  <name>aldi Höhenhöfe 33  47918 Tönisvorst </name>
</wpt>
<wpt lat="52.4599681637" lon="6.57128901515">
  <name>aldi Julianaplein  35 7681 AX Vroomshoop </name>
</wpt>
<wpt lat="52.0375111142" lon="4.6364435461">
  <name>aldi Zuidplashof 2 2743 CR Waddinxveen </name>
</wpt>
<wpt lat="51.1430597005" lon="4.38530798765">
  <name>aldi Kontichsesteenweg 28 2630 Aartselaar </name>
</wpt>
<wpt lat="52.2743312663" lon="6.79243219805">
  <name>aldi Uitslagsweg 95-9 7556 LN Hengelo (Ov.) </name>
</wpt>
<wpt lat="51.0595425724" lon="5.99628975998">
  <name>aldi Raiffeisenstraße 4  52525 Waldfeucht </name>
</wpt>
<wpt lat="51.9436485845" lon="6.12910157474">
  <name>aldi Kerkstraat 36 6941 AH Didam </name>
</wpt>
<wpt lat="51.9854898641" lon="6.56740394581">
  <name>aldi De Leest 35 7131 LE Lichtenvoorde </name>
</wpt>
<wpt lat="51.0988323175" lon="3.84352967259">
  <name>aldi Dorp Oost 144 A 9080 Lochristi </name>
</wpt>
<wpt lat="51.9680011815" lon="6.29242737159">
  <name>aldi Schouwburgplein 224 7001 DJ Doetinchem </name>
</wpt>
<wpt lat="51.0671895677" lon="3.09059064447">
  <name>aldi Zwevezelestraat 16  8820 Torhout </name>
</wpt>
<wpt lat="52.282177539" lon="6.42213652681">
  <name>aldi Zwartepad 14 7451 BJ Holten </name>
</wpt>
<wpt lat="51.6599923989" lon="5.62292740206">
  <name>aldi Violierstraat 15 5402 LA Uden </name>
</wpt>
<wpt lat="51.8410720543" lon="5.83993370557">
  <name>aldi Molenweg 9 6542 PP Nijmegen </name>
</wpt>
<wpt lat="51.8615927642" lon="6.48875827138">
  <name>aldi Hogestraat 69 7091 CC Dinxperlo </name>
</wpt>
<wpt lat="53.2254778731" lon="6.52725822933">
  <name>aldi Siersteenlaan 466 9743 ES Groningen </name>
</wpt>
<wpt lat="53.2827677639" lon="6.15968750255">
  <name>aldi Sjoerdaweg 1 9291 NH Kollum </name>
</wpt>
<wpt lat="52.5176973422" lon="6.10558431474">
  <name>aldi Biss. Willebrandlaan  28 8021 GA Zwolle </name>
</wpt>
<wpt lat="51.1380379175" lon="6.44359434033">
  <name>aldi Stapper Weg 10  41199 Mönchengladbach </name>
</wpt>
<wpt lat="51.3184612536" lon="4.98089271438">
  <name>aldi Steenweg op Turnhout 58/60 2360 Oud-Turnhout </name>
</wpt>
<wpt lat="51.815082771" lon="5.86147245803">
  <name>aldi Kann. Mijlinckstraat 7 6525 WS Nijmegen </name>
</wpt>
<wpt lat="51.2078480767" lon="3.26576950009">
  <name>aldi Maalsesteenweg 204 tijdelijk gesloten van 10/9/16 tot 26/10/16 8000 Brugge </name>
</wpt>
<wpt lat="51.4453576544" lon="3.57037872123">
  <name>aldi Glacisstraat 22C 4381 RJ Vlissingen </name>
</wpt>
<wpt lat="52.1863481552" lon="6.88218449432">
  <name>aldi De Posten 167-171 7544 LR Enschede </name>
</wpt>
<wpt lat="51.0395006622" lon="5.73044130005">
  <name>aldi Hoogbaan 24 3650 Dilsen </name>
</wpt>
<wpt lat="52.7784186442" lon="6.8972930973">
  <name>aldi Wilhelminastraat  10 7811 JA Emmen </name>
</wpt>
<wpt lat="52.6979086324" lon="5.11581793492">
  <name>aldi Zwaagdijk 227c 1684 NG Zwaagdijk-Oost </name>
</wpt>
<wpt lat="52.8431118038" lon="5.70885758151">
  <name>aldi Stationsweg 6 8531 HH Lemmer </name>
</wpt>
<wpt lat="51.4632120696" lon="5.4642421047">
  <name>aldi Judas Taddeusplein 1 5622 JX Eindhoven </name>
</wpt>
<wpt lat="51.4331480748" lon="5.49016055338">
  <name>aldi Geldropseweg 105 5611 SE Eindhoven </name>
</wpt>
<wpt lat="52.3661215074" lon="6.67748990359">
  <name>aldi Ootmarsumsestraat 240 7603 AP Almelo </name>
</wpt>
<wpt lat="51.2077072209" lon="6.44375621822">
  <name>aldi Bröseweg 36  41063 Mönchengladbach-Eicken </name>
</wpt>
<wpt lat="52.7160480643" lon="6.48398287365">
  <name>aldi Nije Nering  34 7906 EW Hoogeveen </name>
</wpt>
<wpt lat="52.252397255" lon="5.37859071495">
  <name>aldi De Ziel 10 3751 BT Spakenburg </name>
</wpt>
<wpt lat="50.8110005364" lon="6.25500659957">
  <name>aldi Florianweg 6  52249 Eschweiler </name>
</wpt>
<wpt lat="53.3610780218" lon="6.37426563773">
  <name>aldi De Nije Nering 16 9965 NA Leens </name>
</wpt>
<wpt lat="51.0552013655" lon="3.69648159681">
  <name>aldi Rooigemlaan 2d 9000 Gent </name>
</wpt>
<wpt lat="51.4773572661" lon="6.6051394804">
  <name>aldi Drennesweg 3  47445 Moers-Repelen </name>
</wpt>
<wpt lat="50.9797701929" lon="6.0991181924">
  <name>aldi Von - Humboldt - Str. 126  52511 Geilenkirchen-Niederheid </name>
</wpt>
<wpt lat="51.4952327594" lon="5.66731791653">
  <name>aldi Nieuwveld 1 5702 HW Helmond </name>
</wpt>
<wpt lat="51.2042025899" lon="3.45032828005">
  <name>aldi Stationsstraat  100 A 9990 Maldegem </name>
</wpt>
<wpt lat="51.0200893425" lon="3.00831171074">
  <name>aldi Staatsbaan  80A 8610 Kortemark </name>
</wpt>
<wpt lat="51.1012381112" lon="4.14511717314">
  <name>aldi Biezestraat 15 9220 Hamme </name>
</wpt>
<wpt lat="53.2139115956" lon="6.27630253519">
  <name>aldi Abel Tasmanplein 1 9861 JB Grootegast </name>
</wpt>
<wpt lat="52.1091611597" lon="5.17442672397">
  <name>aldi Prof. Dr. J. Tinbergenweg 10 3731 LG De Bilt </name>
</wpt>
<wpt lat="51.7435181954" lon="5.26122025216">
  <name>aldi Raadhuis 5-6 5321 HL Hedel </name>
</wpt>
<wpt lat="51.3351010698" lon="6.59978851684">
  <name>aldi Schönwasserstr. 8-10  47809 Krefeld-Oppum </name>
</wpt>
<wpt lat="52.1685187945" lon="4.71171676451">
  <name>aldi Westkanaalweg 100 2461 EJ Ter Aar </name>
</wpt>
<wpt lat="53.0611092349" lon="5.53153834047">
  <name>aldi Snekerstraat 7 8701 XA Bolsward </name>
</wpt>
<wpt lat="51.1451980243" lon="6.28409965352">
  <name>aldi Am Bahnhof 9  41844 Wegberg </name>
</wpt>
<wpt lat="52.0551219647" lon="4.69187772989">
  <name>aldi Dorpsweg 36 2811 KJ Reeuwijk </name>
</wpt>
<wpt lat="51.5932718989" lon="4.79904988566">
  <name>aldi Teteringsedijk 130 4817 MJ Breda </name>
</wpt>
<wpt lat="52.1879526126" lon="5.60764792798">
  <name>aldi Kerkstraat 12 3781 GB Voorthuizen </name>
</wpt>
<wpt lat="52.1398102626" lon="6.21002253284">
  <name>aldi Jan Vermeerstraat 53 7204 CL Zutphen </name>
</wpt>
<wpt lat="51.8189409818" lon="4.69482750475">
  <name>aldi Merwedestraat 50 3313 CS Dordrecht </name>
</wpt>
<wpt lat="52.129062563" lon="5.20729692867">
  <name>aldi Vinkenlaan 7 3722 AH Bilthoven </name>
</wpt>
<wpt lat="52.7874915988" lon="6.10719410042">
  <name>aldi Steenwijkerdiep 27 8331 LP Steenwijk </name>
</wpt>
<wpt lat="51.2784920567" lon="4.41965307978">
  <name>aldi Jozef De Weerdtstraat 8 2180 Ekeren </name>
</wpt>
<wpt lat="53.1830313601" lon="7.26472892583">
  <name>aldi Neuschanzer Straße 19 26831 Bunde </name>
</wpt>
<wpt lat="51.8612817459" lon="5.77181908714">
  <name>aldi Julianaplein 136-138 6641 CT Beuningen </name>
</wpt>
<wpt lat="51.2047773226" lon="6.67577219933">
  <name>aldi Wolberostraße 9  41462 Neuss-Furth </name>
</wpt>
<wpt lat="53.2405717967" lon="7.46117673742">
  <name>aldi Ringstraße 19 26789 Leer </name>
</wpt>
<wpt lat="51.094229335" lon="6.566162882">
  <name>aldi Düsseldorfer Str. 29  41515 Grevenbroich-Elsen </name>
</wpt>
<wpt lat="51.5265875346" lon="4.49176967935">
  <name>aldi Dijkcentrum 41-43 4706 LB Roosendaal </name>
</wpt>
<wpt lat="51.5771004058" lon="4.77089212618">
  <name>aldi Gr. Hendrik-III-Plein 35 4819 CJ Breda </name>
</wpt>
<wpt lat="51.3533299359" lon="5.45911597154">
  <name>aldi Handwerkstraat 14 5554 HP Valkenswaard </name>
</wpt>
<wpt lat="50.809329811" lon="6.14260039204">
  <name>aldi Am alten Kaninsberg 5  52146 Würselen-Broichweiden </name>
</wpt>
<wpt lat="50.8611796642" lon="6.07930613742">
  <name>aldi Im Straßer Feld 1  52134 Herzogenrath-Straß </name>
</wpt>
<wpt lat="51.8746424883" lon="4.46924167313">
  <name>aldi Plein 1953 nr. 187 3086 EM Rotterdam </name>
</wpt>
<wpt lat="51.096900815" lon="4.38252908388">
  <name>aldi Kerkhofstraat 385 2850 Boom </name>
</wpt>
<wpt lat="51.8412498592" lon="5.8577043005">
  <name>aldi Mariënburgpassage 9 6511 PM Nijmegen </name>
</wpt>
<wpt lat="51.1437480372" lon="4.86093220537">
  <name>aldi Bulestraat 2 2250 Olen </name>
</wpt>
<wpt lat="50.7790020143" lon="6.12316605214">
  <name>aldi Elsassstraße 139  52068 Aachen - Rothe Erde </name>
</wpt>
<wpt lat="51.8373602177" lon="6.6926704523">
  <name>aldi Lindenstraße 9  46414 Rhede </name>
</wpt>
<wpt lat="51.1741205419" lon="5.1432472439">
  <name>aldi Molsesteenweg 52 2490 Balen </name>
</wpt>
<wpt lat="50.7716885652" lon="6.08419844695">
  <name>aldi Franzstraße 2  52064 Aachen-Zentrum </name>
</wpt>
<wpt lat="51.6795472177" lon="5.79142429815">
  <name>aldi Wanroijseweg 49a 5451 GZ Mill </name>
</wpt>
<wpt lat="51.2236493618" lon="5.30250810709">
  <name>aldi Balendijk 42  3920 Lommel </name>
</wpt>
<wpt lat="51.1604906393" lon="4.36718665729">
  <name>aldi Moerelei 11 2610 Wilrijk </name>
</wpt>
<wpt lat="52.3901891557" lon="6.0436210561">
  <name>aldi Zwolseweg  19-21 8181 AA Heerde </name>
</wpt>
<wpt lat="51.0533584906" lon="6.22229827276">
  <name>aldi Parkhofstraße 51  41836 Hückelhoven </name>
</wpt>
<wpt lat="53.2442421961" lon="6.40691101202">
  <name>aldi Dorpsvenne 1e 9801 DA Zuidhorn </name>
</wpt>
<wpt lat="53.3505307926" lon="7.22624695431">
  <name>aldi Petkumer Straße 207 26725 Emden </name>
</wpt>
<wpt lat="50.8833072066" lon="5.92543221065">
  <name>aldi Kerkplein 1-3 6367 EN Voerendaal </name>
</wpt>
<wpt lat="52.2314989437" lon="6.58435615809">
  <name>aldi Het Jannink 121 7471 VE Goor </name>
</wpt>
<wpt lat="52.314367921" lon="4.95499225213">
  <name>aldi Bijlmerplein 719b 1102 MA Amsterdam </name>
</wpt>
<wpt lat="51.1878027834" lon="4.45196570508">
  <name>aldi Luchthavenlei 7 2100 Deurne </name>
</wpt>
<wpt lat="51.6434205312" lon="5.35385037757">
  <name>aldi Oude Schoolstraat 6 5271 AN Sint Michielsgestel </name>
</wpt>
<wpt lat="52.5191913145" lon="6.07114929045">
  <name>aldi Gasthuisdijk  1 8041 AE Zwolle </name>
</wpt>
<wpt lat="51.4140591645" lon="4.76331084504">
  <name>aldi Minderhoutdorp 49 2320 Hoogstraten </name>
</wpt>
<wpt lat="51.2042476673" lon="4.44408764781">
  <name>aldi Frans De Vriendtstraat 50 2600 Berchem </name>
</wpt>
<wpt lat="51.4462712795" lon="4.04340389951">
  <name>aldi Sluisweg 26 4416 RL Kruiningen </name>
</wpt>
<wpt lat="51.2119721436" lon="4.43318786994">
  <name>aldi Sergeyselsstraat 60 2140 Borgerhout </name>
</wpt>
<wpt lat="52.7903305881" lon="7.23568083796">
  <name>aldi Lange Str. 73-77  49733 Haren </name>
</wpt>
<wpt lat="51.4553392789" lon="6.38109148872">
  <name>aldi Industriestraße 5a  47647 Kerken </name>
</wpt>
<wpt lat="52.3466118214" lon="6.64388225518">
  <name>aldi Vincent van Goghplein 3 7606 GL Almelo </name>
</wpt>
<wpt lat="51.8641585835" lon="6.04714639679">
  <name>aldi Heerbaan 158 6566 EV Millingen aan de Rijn </name>
</wpt>
<wpt lat="51.1506421218" lon="4.15369670126">
  <name>aldi Kapelstraat 95 9100 Sint-Niklaas </name>
</wpt>
<wpt lat="51.4532321665" lon="6.58103766136">
  <name>aldi Andreas-Bräm-Str. 47  47506 Neukirchen-Vluyn </name>
</wpt>
<wpt lat="51.8024995952" lon="5.25116583661">
  <name>aldi Fiep Westendorpplein 2 5302 TA Zaltbommel </name>
</wpt>
<wpt lat="51.4029128039" lon="5.7484996779">
  <name>aldi Julianastraat 50 5721 GL Asten </name>
</wpt>
<wpt lat="51.8083996126" lon="5.83053579479">
  <name>aldi Binnenhof 10-12 6535 TN Nijmegen </name>
</wpt>
<wpt lat="52.5608597708" lon="5.92500053627">
  <name>aldi Burg. van Engelenweg  12 8271 AS IJsselmuiden </name>
</wpt>
<wpt lat="51.193777272" lon="4.55105295962">
  <name>aldi Kromstraat 62 a 2520 Ranst </name>
</wpt>
<wpt lat="50.6953296035" lon="5.85409802086">
  <name>aldi Rue de Battice  4880 Aubel </name>
</wpt>
<wpt lat="51.0690714505" lon="3.68386411468">
  <name>aldi Brugsesteenweg 367 9030 Gent-Mariakerke </name>
</wpt>
<wpt lat="52.6601398381" lon="5.08586153222">
  <name>aldi Westerblokker 129 1695 AD Blokker </name>
</wpt>
<wpt lat="51.3171403746" lon="5.35754658937">
  <name>aldi Burg. Magneestraat 57 5571 HC Bergeijk </name>
</wpt>
<wpt lat="51.4636603015" lon="5.63374624098">
  <name>aldi Hoofdstraat 95-97 5706 AK Mierlo-Hout </name>
</wpt>
<wpt lat="51.4421289921" lon="4.92857917656">
  <name>aldi Stationsstraat 29 5111 CK Baarle-Nassau </name>
</wpt>
<wpt lat="52.2969419311" lon="4.69032190351">
  <name>aldi Graan voor Visch 14005 2132 VW Hoofddorp </name>
</wpt>
<wpt lat="52.2745898963" lon="4.7948680402">
  <name>aldi Poldermeesterplein 7 1432 JZ Aalsmeer </name>
</wpt>
<wpt lat="51.2089185667" lon="5.94921926712">
  <name>aldi Dorpstraat 69 6085 BE Horn </name>
</wpt>
<wpt lat="51.7799712224" lon="6.12877781896">
  <name>aldi Hoffmannallee 31  47533 Kleve </name>
</wpt>
<wpt lat="51.6579003256" lon="5.60807960235">
  <name>aldi Mr. van Coothstraat 63 5401 BK Uden </name>
</wpt>
<wpt lat="51.0679411997" lon="6.10961327554">
  <name>aldi Humboldtstraße 22  52525 Heinsberg - Gewerbegebiet </name>
</wpt>
<wpt lat="51.6153182135" lon="5.54422776833">
  <name>aldi Vlas en Graan 126 5461 KL Veghel </name>
</wpt>
<wpt lat="51.6263513141" lon="4.94342697628">
  <name>aldi Hoge Ham 145 5104 JD Dongen </name>
</wpt>
<wpt lat="52.3741327035" lon="5.22076876633">
  <name>aldi Regisseurstraat 1a 1315 LT Almere </name>
</wpt>
<wpt lat="51.6770322249" lon="6.16135124753">
  <name>aldi Gartenstr. 6  47574 Goch </name>
</wpt>
<wpt lat="52.7165873913" lon="6.49925335452">
  <name>aldi Wielewaal  2 7905 GZ Hoogeveen </name>
</wpt>
<wpt lat="51.7905414899" lon="6.01190198305">
  <name>aldi Großen Haag 7  47559 Kranenburg </name>
</wpt>
<wpt lat="50.7635889793" lon="6.07664414546">
  <name>aldi Schillerstraße 20  52064 Aachen </name>
</wpt>
<wpt lat="51.3668185596" lon="4.99244899702">
  <name>aldi Grote Baan 84 2380 Ravels </name>
</wpt>
<wpt lat="51.5193524412" lon="5.96416599221">
  <name>aldi Veltumse Kleffen 50 5801 SH Venray </name>
</wpt>
<wpt lat="52.1013726762" lon="5.04627339513">
  <name>aldi Ella Fitzgeraldplein 191 3543 EN Utrecht </name>
</wpt>
<wpt lat="52.1261088375" lon="4.65103953576">
  <name>aldi Euromarkt 89 - 97 2408 BE Alphen aan den Rijn </name>
</wpt>
<wpt lat="52.4852223653" lon="4.66828852416">
  <name>aldi Beijneslaan 169 1947 HK Beverwijk </name>
</wpt>
<wpt lat="52.5099694658" lon="5.44827015298">
  <name>aldi Jol 3525 8243 HG Lelystad </name>
</wpt>
<wpt lat="50.713008822" lon="6.13883223451">
  <name>aldi Werkstraße 21  52076 Aachen - Oberforstbach </name>
</wpt>
<wpt lat="51.1536205894" lon="4.97621624203">
  <name>aldi Pas 264 2440 Geel </name>
</wpt>
<wpt lat="51.4748310597" lon="3.9644974218">
  <name>aldi Hoofdstraat 15 4421 JR Kapelle-Biezelinge </name>
</wpt>
<wpt lat="50.9165893864" lon="5.95513680329">
  <name>aldi Groeët Genhei 4 6413 GN Heerlen </name>
</wpt>
<wpt lat="51.4700023113" lon="5.47717434939">
  <name>aldi W.C. Woensel 77 5625 AD Eindhoven </name>
</wpt>
<wpt lat="51.6549879987" lon="3.90516018225">
  <name>aldi Grevelingenstraat 7 4301 XZ Zierikzee </name>
</wpt>
<wpt lat="50.9170089484" lon="5.88356878989">
  <name>aldi Markt 10 6361 CB Nuth </name>
</wpt>
<wpt lat="51.5183619329" lon="5.05782967777">
  <name>aldi Wethouder de Brouwerstraat 33 5051 SJ Goirle </name>
</wpt>
<wpt lat="51.6092198229" lon="4.78519133972">
  <name>aldi Brusselstraat 10-12 4826 NJ Breda </name>
</wpt>
<wpt lat="51.1932080381" lon="5.72276109354">
  <name>aldi Mgr. Nolensstraat 1 6039 CK Stramproy </name>
</wpt>
<wpt lat="50.9597674138" lon="5.83201068222">
  <name>aldi Jos Kleijnenlaan  38 - 42 6164 AR Geleen </name>
</wpt>
<wpt lat="51.6304712881" lon="5.22908749118">
  <name>aldi Vincent van Goghplein  5 5268 EC Helvoirt </name>
</wpt>
<wpt lat="51.9163983537" lon="4.50016934315">
  <name>aldi Maaskade 23a 3071 NA Rotterdam </name>
</wpt>
<wpt lat="51.5650322985" lon="5.46455686726">
  <name>aldi Sluisplein 2 5492 AN St. Oedenrode </name>
</wpt>
<wpt lat="52.3439692226" lon="4.90852430475">
  <name>aldi Gaaspstraat 41 1079 VC Amsterdam </name>
</wpt>
<wpt lat="51.3393485659" lon="3.28455632843">
  <name>aldi Maurice Lippensplein 24  8300 Knokke </name>
</wpt>
<wpt lat="51.7610275595" lon="6.39532774974">
  <name>aldi Vor dem Delltor 13  46459 Rees </name>
</wpt>
<wpt lat="51.9354098245" lon="4.49035774443">
  <name>aldi Linker Rottekade 6B 3034 NV Rotterdam </name>
</wpt>
<wpt lat="51.9736800736" lon="6.31631335344">
  <name>aldi Houtsmastraat 148 7002 KK Doetinchem </name>
</wpt>
<wpt lat="53.1703377252" lon="5.41594853446">
  <name>aldi Westerzeedijk 1 8862 RZ Harlingen </name>
</wpt>
<wpt lat="51.160829039" lon="4.304530921">
  <name>aldi Bazelstraat  263 9150 Kruibeke </name>
</wpt>
<wpt lat="52.3014901765" lon="6.75239440015">
  <name>aldi Grotestraat 232-234 7622 GV Borne </name>
</wpt>
<wpt lat="51.4798889336" lon="6.63336019239">
  <name>aldi Orsoyer Allee 1b  47445 Moers-Eick </name>
</wpt>
<wpt lat="52.2609299666" lon="4.55404770056">
  <name>aldi Madelief 8 2161 EX Lisse </name>
</wpt>
<wpt lat="52.9358816972" lon="4.77072125508">
  <name>aldi Vrede en Vrijheid 12-16 1785 RM Den Helder </name>
</wpt>
<wpt lat="51.0548282741" lon="5.22300807713">
  <name>aldi Koolmijnlaan 77  3580 Beringen </name>
</wpt>
<wpt lat="52.091919718" lon="5.09052001814">
  <name>aldi Haroekoeplein 12 3531 WN Utrecht </name>
</wpt>
<wpt lat="51.7915316302" lon="4.65317092797">
  <name>aldi Admiraalsplein 68-70 3317 BC Dordrecht </name>
</wpt>
<wpt lat="51.8940712292" lon="6.38110048193">
  <name>aldi Ir. Sassenstraat 20 7071 BC Ulft </name>
</wpt>
<wpt lat="51.1987873544" lon="4.41679323707">
  <name>aldi Covelierstraat 8 2600 Berchem </name>
</wpt>
<wpt lat="51.4322285804" lon="5.47025856624">
  <name>aldi Hoogstraat 107a 5615 PB Eindhoven </name>
</wpt>
<wpt lat="51.0549922086" lon="5.27336109384">
  <name>aldi P. Vanhoudtstraat 84  3582 Koersel </name>
</wpt>
<wpt lat="51.2271018261" lon="6.59859241911">
  <name>aldi Ludwig-Erhard-Str.1  41564 Kaarst </name>
</wpt>
<wpt lat="52.6263399942" lon="4.72249063735">
  <name>aldi Vincent van Goghlaan 1 1816 VM Alkmaar </name>
</wpt>
<wpt lat="51.7634376971" lon="6.18914927836">
  <name>aldi Norbertstraße 2a  47551 Bedburg-Hau </name>
</wpt>
<wpt lat="50.8364290989" lon="6.118831322">
  <name>aldi Bardenberger Straße 79  52146 Würselen - Bardenberg </name>
</wpt>
<wpt lat="50.8593971994" lon="5.70070073454">
  <name>aldi Francois de Veyestraat 3 6221AB Maastricht </name>
</wpt>
<wpt lat="51.2547009611" lon="6.34599995965">
  <name>aldi Viersener Str. 103  41751 Viersen-Dülken </name>
</wpt>
<wpt lat="51.1138015488" lon="6.33060357376">
  <name>aldi Gladbacher Str. 25-27  41844 Wegberg-Rath </name>
</wpt>
<wpt lat="50.8140008729" lon="5.60175737146">
  <name>aldi Maastrichtersteenweg 24 3770 Riemst </name>
</wpt>
<wpt lat="50.8345775309" lon="5.98465253839">
  <name>aldi Marktstraat 1 6369 AG Simpelveld </name>
</wpt>
<wpt lat="53.1694590034" lon="6.86105043658">
  <name>aldi Kerkstraat 77-79 9636 AB Zuidbroek </name>
</wpt>
<wpt lat="51.7365682421" lon="5.53537844373">
  <name>aldi Osseweg 1 5384 NA Heesch </name>
</wpt>
<wpt lat="51.7521595948" lon="5.50053872471">
  <name>aldi Dr. Schaepmanlaan 109 5344 BC Oss </name>
</wpt>
<wpt lat="53.3359213884" lon="6.91126855505">
  <name>aldi De Wending 16 9933 KN Delfzijl </name>
</wpt>
<wpt lat="51.123680505" lon="5.06152588957">
  <name>aldi Bevrijdingslaan 147 2450 Meerhout </name>
</wpt>
<wpt lat="51.8699117067" lon="5.2883437918">
  <name>aldi Rijksstraatweg 72 4194 SL Geldermalsen </name>
</wpt>
<wpt lat="51.5469213337" lon="5.08530395283">
  <name>aldi Transvaalplein  45 5021 TD Tilburg </name>
</wpt>
<wpt lat="51.2178702694" lon="4.13291337894">
  <name>aldi Samelstraat 14 9170 St-Gillis-Waas </name>
</wpt>
<wpt lat="51.3162972405" lon="6.27150015782">
  <name>aldi Rosental 32  41334 Nettetal-Lobberich </name>
</wpt>
<wpt lat="51.174272777" lon="5.57619865142">
  <name>aldi Kaulillerweg 6 3950 Bocholt </name>
</wpt>
<wpt lat="51.4113387383" lon="6.03703802194">
  <name>aldi Raadhuisplein 4 5975 BK Sevenum </name>
</wpt>
<wpt lat="53.2419388151" lon="6.6132063952">
  <name>aldi Kajuit 287 9733 CV Groningen </name>
</wpt>
<wpt lat="53.1724185528" lon="6.61149768415">
  <name>aldi Jachtlaan 2 9751 BT Haren </name>
</wpt>
<wpt lat="51.0891175109" lon="5.52473047591">
  <name>aldi Genkerbaan 14  3670 Meeuwen </name>
</wpt>
<wpt lat="52.8607998947" lon="7.32109840409">
  <name>aldi Kreuzstr. 6 - 8  49762 Lathen </name>
</wpt>
<wpt lat="51.4471680717" lon="6.26891910481">
  <name>aldi von Galenstr. 1  47638 Straelen </name>
</wpt>
<wpt lat="51.03672973" lon="6.69777859902">
  <name>aldi Bahnstraße 44 - 46  41569 Rommerskirchen </name>
</wpt>
<wpt lat="51.1812806886" lon="4.37106273341">
  <name>aldi Sint-Bernardsesteenweg 589 2660 Hoboken </name>
</wpt>
<wpt lat="51.0790503666" lon="3.45039123256">
  <name>aldi Lostraat  81  9880 Aalter </name>
</wpt>
<wpt lat="52.8548322595" lon="5.02620053689">
  <name>aldi Brinkweg 3 1771 CN Wieringerwerf </name>
</wpt>
<wpt lat="51.0641772658" lon="6.09117718262">
  <name>aldi Westpromenade 88  52525 Heinsberg </name>
</wpt>
<wpt lat="51.8397773916" lon="6.62231652307">
  <name>aldi Münsterstraße 7  46397 Bocholt </name>
</wpt>
<wpt lat="52.164607843" lon="4.48190412134">
  <name>aldi Stationsplein 220 - 230 2312 AK Leiden </name>
</wpt>
<wpt lat="51.2078311741" lon="4.23640730935">
  <name>aldi Peter Benoitlaan  79 9120 Beveren </name>
</wpt>
<wpt lat="51.5198784651" lon="6.3127070738">
  <name>aldi Harttor 51  47608 Geldern </name>
</wpt>
<wpt lat="53.165841499" lon="7.45450377111">
  <name>aldi Ihrener Straße 7-9 26810 Westoverledingen </name>
</wpt>
<wpt lat="50.8575578967" lon="6.02766709081">
  <name>aldi Carboonplein 16 6466 CX Kerkrade </name>
</wpt>
<wpt lat="50.7821579319" lon="6.22130901899">
  <name>aldi Prattelsackstraße 30  52222 Stolberg </name>
</wpt>
<wpt lat="52.6477721476" lon="6.20976172957">
  <name>aldi Meestersweg 1H 7951 BR Staphorst </name>
</wpt>
<wpt lat="51.533390719" lon="4.46539257665">
  <name>aldi Boulevard 118A 4701 EZ Roosendaal </name>
</wpt>
<wpt lat="51.5095527367" lon="6.54570331546">
  <name>aldi Oststr. 5a  47475 Kamp-Lintfort </name>
</wpt>
<wpt lat="51.4702375986" lon="4.66077019554">
  <name>aldi Molenstraat 51-53 4881 CR Zundert </name>
</wpt>
<wpt lat="51.82571151" lon="4.15208691558">
  <name>aldi Kastanjelaan 42 3224 TJ Hellevoetsluis </name>
</wpt>
<wpt lat="52.7887098851" lon="4.80228744345">
  <name>aldi Langestraat  7 1741 HB Schagen </name>
</wpt>
<wpt lat="51.2938979269" lon="6.2430995815">
  <name>aldi Josefstr. 71  41334 Nettetal-Breyell </name>
</wpt>
<wpt lat="51.2709475391" lon="3.0362896059">
  <name>aldi Grotestraat 147  8420 De Haan </name>
</wpt>
<wpt lat="51.5531678871" lon="6.59609230504">
  <name>aldi Xantener Str. 77  47495 Rheinberg </name>
</wpt>
<wpt lat="51.2026473949" lon="5.11542223341">
  <name>aldi Turnhoutsebaan 157 2400 Mol Achterbos </name>
</wpt>
<wpt lat="51.041988705" lon="5.57737676272">
  <name>aldi Weg naar Zwartberg 54 3660 Opglabbeek </name>
</wpt>
<wpt lat="52.4478179778" lon="5.84705633269">
  <name>aldi Vrijheidsstraat 18 8081 XD Elburg </name>
</wpt>
<wpt lat="51.5656472401" lon="5.07878387119">
  <name>aldi Wilhelminapark 48 5041 ED Tilburg </name>
</wpt>
<wpt lat="51.1497620833" lon="4.34052177167">
  <name>aldi Bredestraat 193 2620 Hemiksem </name>
</wpt>
<wpt lat="51.9857003293" lon="6.90453263622">
  <name>aldi Südlohner Weg 20 48703 Stadtlohn </name>
</wpt>
<wpt lat="51.323598268" lon="6.60439304347">
  <name>aldi Hafelsstr. 237  47809 Krefeld </name>
</wpt>
<wpt lat="51.2673801993" lon="3.90901827193">
  <name>aldi Tuinstraat 3+5 4571 EX Axel </name>
</wpt>
<wpt lat="51.5701416521" lon="5.06049166972">
  <name>aldi Bernardusplein 24 5042 HP Tilburg </name>
</wpt>
<wpt lat="52.0477720484" lon="6.30936159743">
  <name>aldi Zuivelweg 7 7255 XA Hengelo (Gld.) </name>
</wpt>
<wpt lat="51.5116292636" lon="5.65078838541">
  <name>aldi Kanaaldijk 3 5735 SL Aarle-Rixtel </name>
</wpt>
<wpt lat="52.0352484134" lon="6.83407978162">
  <name>aldi Wüllener Straße 55a 48691 Vreden </name>
</wpt>
<wpt lat="51.5113606077" lon="5.49195020338">
  <name>aldi Heistraat 14b 5691 CA Son </name>
</wpt>
<wpt lat="50.8904897304" lon="6.27566401685">
  <name>aldi Am alten Bahnhof 5  52457 Aldenhoven </name>
</wpt>
<wpt lat="51.0515890355" lon="3.65548152479">
  <name>aldi Antoon Catriestraat 10a 9031 Drongen </name>
</wpt>
<wpt lat="52.2004279116" lon="5.95510982364">
  <name>aldi Hoge Dries 64 7335 AS Apeldoorn </name>
</wpt>
<wpt lat="51.9410706695" lon="6.46426075083">
  <name>aldi Burg. v.d. Zandestraat 9A 7051 CS Varsseveld </name>
</wpt>
<wpt lat="52.2216383532" lon="4.49170672684">
  <name>aldi Oosthoutplein 5 2215 VM Voorhout </name>
</wpt>
<wpt lat="53.1110726819" lon="6.8854220521">
  <name>aldi Beneden Oosterdiep 165 9645 LN Veendam </name>
</wpt>
<wpt lat="50.8989019735" lon="5.96002011961">
  <name>aldi Zeswegenlaan 283 6412 HK Heerlen </name>
</wpt>
<wpt lat="51.8225987499" lon="4.39618977908">
  <name>aldi Molenaar 8 3262 DE Oud-Beijerland </name>
</wpt>
<wpt lat="51.4886702659" lon="4.29071734113">
  <name>aldi Glacisstraat 17 4615 AE Bergen op Zoom </name>
</wpt>
<wpt lat="51.1940872479" lon="3.23182910268">
  <name>aldi Baron Ruzettelaan 86  8000 Brugge </name>
</wpt>
<wpt lat="51.3616021567" lon="6.41770287129">
  <name>aldi Hessenring 25  47906 Kempen </name>
</wpt>
<wpt lat="52.0067916797" lon="6.34966019859">
  <name>aldi Markt 5 7021 AA Zelhem </name>
</wpt>
<wpt lat="50.9563289226" lon="5.69472923908">
  <name>aldi Industrielaan 4  3630 Maasmechelen </name>
</wpt>
<wpt lat="53.0487579786" lon="7.32701594025">
  <name>aldi Zu den Emsauen 2 26871 Aschendorf </name>
</wpt>
<wpt lat="51.0860388469" lon="6.5749582473">
  <name>aldi Deutsch-Ritter-Allee 50  41515 Grevenbroich </name>
</wpt>
<wpt lat="51.198680283" lon="4.49264202131">
  <name>aldi Herentalsebaan 150 2160 Wommelgem </name>
</wpt>
<wpt lat="52.2994993454" lon="5.61977078323">
  <name>aldi Stationsstraat  94 3851 NL Ermelo </name>
</wpt>
<wpt lat="52.7988410069" lon="6.897239138">
  <name>aldi Middenhaag 515 7815 LG Emmen </name>
</wpt>
<wpt lat="51.1104422224" lon="3.98071219036">
  <name>aldi Tweebruggenstraat 10 9160 Lokeren </name>
</wpt>
<wpt lat="51.6048018871" lon="5.67281277154">
  <name>aldi Kerkstraat 8 5427 BC Boekel </name>
</wpt>
<wpt lat="51.2501810619" lon="5.89679781071">
  <name>aldi Dorpstraat 22 6093 EC Heythuysen </name>
</wpt>
<wpt lat="51.3272286773" lon="3.83551671708">
  <name>aldi Axelsestraat 163-165 4537 AH Terneuzen </name>
</wpt>
<wpt lat="52.907090403" lon="4.96126951694">
  <name>aldi Hoofdstraat 4 1777 CB Hippolytushoef </name>
</wpt>
<wpt lat="52.8342188748" lon="6.36106359655">
  <name>aldi Heuvelenweg 34h 7991 CM Dwingeloo </name>
</wpt>
<wpt lat="52.7278518077" lon="6.48018773647">
  <name>aldi Markt  9 7902 BK Hoogeveen </name>
</wpt>
<wpt lat="52.4347378482" lon="4.81067811403">
  <name>aldi Westzanerdijk 118c 1507 AK Zaandam </name>
</wpt>
<wpt lat="51.1401877589" lon="5.5890679436">
  <name>aldi Boogschutterstraat 68 3960 Bree </name>
</wpt>
<wpt lat="51.2350702288" lon="4.82783717027">
  <name>aldi Poederleeseweg 50 2275 Lille </name>
</wpt>
<wpt lat="53.2542884387" lon="6.03719989983">
  <name>aldi Leeuwerikstraat 43 9271 CR Zwaagwesteinde </name>
</wpt>
<wpt lat="51.3081011697" lon="4.92117775975">
  <name>aldi Steenweg op Gierle 339 bus 10 2300 Turnhout </name>
</wpt>
<wpt lat="51.726910042" lon="5.88034921854">
  <name>aldi Kaneelstraat 38-44 5431 DZ Cuijk </name>
</wpt>
<wpt lat="51.3305497443" lon="3.86237945345">
  <name>aldi Kokkeldreef 10 4533 DD Terneuzen </name>
</wpt>
<wpt lat="51.3954392382" lon="4.32766147271">
  <name>aldi Hondseind 10 4641 HN Ossendrecht </name>
</wpt>
<wpt lat="51.0527083792" lon="3.74776091478">
  <name>aldi Dendermondsesteenweg 263 9070 Destelbergen </name>
</wpt>
<wpt lat="51.2173125993" lon="5.42641663795">
  <name>aldi Leopoldlaan 22A 3900 Overpelt </name>
</wpt>
<wpt lat="51.6456193026" lon="4.45233442693">
  <name>aldi Oude Molensedijk 9 4793 TE Fijnaart </name>
</wpt>
<wpt lat="52.2129107305" lon="5.28489039683">
  <name>aldi Nieuwstraat 13 3743 BK Baarn </name>
</wpt>
<wpt lat="50.7707501316" lon="6.02410577725">
  <name>aldi Kerkstraat 2 6291 AC Vaals </name>
</wpt>
<wpt lat="51.9302584448" lon="6.07684199622">
  <name>aldi Muldershof 35 6901 GW Zevenaar </name>
</wpt>
<wpt lat="53.0560015954" lon="4.79915780426">
  <name>aldi Wilhelminalaan  99 1791 AM Den Burg </name>
</wpt>
<wpt lat="51.243200519" lon="6.1898957153">
  <name>aldi Borner Straße 53  41379 Brüggen </name>
</wpt>
<wpt lat="52.5733504102" lon="6.292319453">
  <name>aldi Grote Markt 22 7711 CZ Nieuwleusen </name>
</wpt>
<wpt lat="52.9741699126" lon="6.9545259243">
  <name>aldi Parklaan 71-73 9521 GB Nieuw-Buinen </name>
</wpt>
<wpt lat="52.172627957" lon="5.00202677212">
  <name>aldi Hazeslinger 10 3621 AT Breukelen </name>
</wpt>
<wpt lat="51.9960119132" lon="5.97404054345">
  <name>aldi Churchillplein 40 6883 EW Velp </name>
</wpt>
<wpt lat="51.2998192903" lon="4.71069153788">
  <name>aldi Antwerpsesteenweg 130 2390 Malle Oostmalle </name>
</wpt>
<wpt lat="51.3025688376" lon="4.56945307967">
  <name>aldi Handelslei 10 2960 Sint Job in 't Goor </name>
</wpt>
<wpt lat="51.0862874072" lon="6.60248648166">
  <name>aldi Lindenstraße 57  41515 Grevenbroich </name>
</wpt>
<wpt lat="52.0656276461" lon="4.32061079132">
  <name>aldi Van der Kunstraat 75 2521 BA 's-Gravenhage </name>
</wpt>
<wpt lat="52.0672917404" lon="4.3302874918">
  <name>aldi Laakweg 126 e 2521 SC 's-Gravenhage </name>
</wpt>
<wpt lat="51.8357709246" lon="6.83152570826">
  <name>aldi Nina-Winkel-Str.  2 46325 Borken </name>
</wpt>
<wpt lat="50.7858878949" lon="6.06424250052">
  <name>aldi Süsterfeldstraße 63  52072 Aachen </name>
</wpt>
<wpt lat="51.4379022385" lon="6.53564889991">
  <name>aldi Am Dreßlerhof 1  47506 Neukirchen-Vluyn </name>
</wpt>
<wpt lat="52.0781704042" lon="5.08848755131">
  <name>aldi Van Heuven Goedhartlaan 77a 3527 CG Utrecht </name>
</wpt>
<wpt lat="51.3868420055" lon="4.58786219295">
  <name>aldi Bredabaan 533 2990 Wuustwezel </name>
</wpt>
<wpt lat="51.8417888259" lon="6.86685106094">
  <name>aldi Heidener Str.  65 46325 Borken </name>
</wpt>
<wpt lat="51.0553709515" lon="5.08844258523">
  <name>aldi Diesterstraat 94 3980 Tessenderlo </name>
</wpt>
<wpt lat="52.2609574888" lon="6.22511314939">
  <name>aldi Andriessenplein  35 7425 GZ Deventer </name>
</wpt>
<wpt lat="52.1801613551" lon="5.37389625617">
  <name>aldi Hamseweg 17 3828 AA Hoogland </name>
</wpt>
<wpt lat="51.420037924" lon="6.65460216872">
  <name>aldi Düsseldorfer Str. 332-338  47447 Moers-Schwafheim </name>
</wpt>
<wpt lat="51.9102295423" lon="4.43472570989">
  <name>aldi Vierhavensstraat 113 3029 BB Rotterdam </name>
</wpt>
<wpt lat="50.819040777" lon="6.28971142034">
  <name>aldi Dürener Straße 282  52249 Eschweiler </name>
</wpt>
<wpt lat="52.3801387746" lon="5.78666688685">
  <name>aldi Laan  66 8071 JB Nunspeet </name>
</wpt>
<wpt lat="51.3613775404" lon="5.32142983368">
  <name>aldi Lindestraat 49 5521 EH Eersel </name>
</wpt>
<wpt lat="50.8280794227" lon="5.76766422132">
  <name>aldi Kerkstraat 83 6267 EC Cadier en Keer </name>
</wpt>
<wpt lat="52.4601709124" lon="4.81752195145">
  <name>aldi Dr. H.G. Scholtenstraat  5b 1508 EB Zaandam </name>
</wpt>
<wpt lat="51.8528112235" lon="6.5920903239">
  <name>aldi Proppertweg 9  46399 Bocholt-Holtwick </name>
</wpt>
<wpt lat="51.3077076315" lon="3.11891927505">
  <name>aldi Grote Edestraat 66  8370 Blankenberge </name>
</wpt>
<wpt lat="51.4557315498" lon="6.66798407422">
  <name>aldi Franz-Haniel-Straße 90  47443 Moers-Hochstraß </name>
</wpt>
<wpt lat="51.6327600009" lon="6.66822689105">
  <name>aldi Kurierweg 28  46562 Voerde-Friedrichsfeld </name>
</wpt>
<wpt lat="51.9340180676" lon="6.80817931937">
  <name>aldi Pfarrer-Becker-Str.  7 46354  Suedlohn-Oeding </name>
</wpt>
<wpt lat="51.4233915199" lon="4.32295802071">
  <name>aldi Raadhuisstraat 130C 4631 NJ Hoogerheide </name>
</wpt>
<wpt lat="52.8585193666" lon="6.51416410674">
  <name>aldi Ventweg Zuid 1 9411 ZZ Beilen </name>
</wpt>
<wpt lat="51.092308937" lon="6.15938173321">
  <name>aldi Weilerstraße 61-65  41849 Wassenberg </name>
</wpt>
<wpt lat="52.1266112607" lon="4.44806264931">
  <name>aldi Schoolstraat 6 2251 BH Voorschoten </name>
</wpt>
<wpt lat="52.9240475937" lon="6.79819684954">
  <name>aldi Buinerstraat 8 9531 CG Borger </name>
</wpt>
<wpt lat="52.5050594786" lon="6.26192238272">
  <name>aldi Kerkplein  17 7721 AC Dalfsen </name>
</wpt>
<wpt lat="52.4965026385" lon="4.66517687141">
  <name>aldi Frank Sinatraplein  42 1945 WM Beverwijk </name>
</wpt>
<wpt lat="51.6873812776" lon="4.9470242627">
  <name>aldi Dorpsplein 5-17-19 5165 CJ Waspik </name>
</wpt>
<wpt lat="51.2484979472" lon="6.40399721002">
  <name>aldi Freiheitsstraße 256  41747 Viersen-Innenstadt </name>
</wpt>
<wpt lat="51.2886788462" lon="4.48722810524">
  <name>aldi Leopoldslei 10 2930 Brasschaat </name>
</wpt>
<wpt lat="52.0806022632" lon="4.36288790001">
  <name>aldi Monseigneur van Steelaan 205 2273 ER Voorburg </name>
</wpt>
<wpt lat="53.3244279323" lon="6.00790000191">
  <name>aldi Hogedijken 4 9101 WV Dokkum </name>
</wpt>
<wpt lat="51.171380223" lon="4.8337906793">
  <name>aldi Noorderwijksebaan 40 2200 Herentals </name>
</wpt>
<wpt lat="51.5899196089" lon="5.07876588475">
  <name>aldi Verdiplein 95 5049 NP Tilburg </name>
</wpt>
<wpt lat="52.1268817939" lon="6.91074694852">
  <name>aldi Haaksbergener Straße 24 48683 Ahaus </name>
</wpt>
<wpt lat="50.7626105636" lon="6.28570943919">
  <name>aldi Gressenicher Straße 109  52224 Stolberg - Mausbach </name>
</wpt>
<wpt lat="53.2043891502" lon="6.56252062949">
  <name>aldi Hoornsediep 147-153 9727 GH Groningen </name>
</wpt>
<wpt lat="51.2504512551" lon="5.53955129598">
  <name>aldi Bernard Kempplein 2A 3930 Hamont </name>
</wpt>
<wpt lat="51.1303574828" lon="3.1533273197">
  <name>aldi Groenestraat 112D  8210 Zedelgem </name>
</wpt>
<wpt lat="52.217241697" lon="7.00922266437">
  <name>aldi Königstr. 58  48599 Gronau </name>
</wpt>
<wpt lat="52.0483085392" lon="6.10178917757">
  <name>aldi Buitensingel 77 6951 AX Dieren </name>
</wpt>
<wpt lat="52.0836584799" lon="4.7425095363">
  <name>aldi Doortocht 9 2411 DS Bodegraven </name>
</wpt>
<wpt lat="51.2365004532" lon="6.69369567893">
  <name>aldi Hessenweg 23  40667 Meerbusch- Büderich </name>
</wpt>
<wpt lat="51.5239913147" lon="5.98911317356">
  <name>aldi D'n Herk 96 5803 DN Venray </name>
</wpt>
<wpt lat="51.8312194568" lon="6.61460034369">
  <name>aldi Friesenstr. 19  46395 Bocholt </name>
</wpt>
<wpt lat="51.4456379094" lon="6.63452031726">
  <name>aldi Uerdinger Straße 67  47441 Moers </name>
</wpt>
<wpt lat="52.9316319838" lon="7.01201056135">
  <name>aldi Marktstraat  50 9581 AC Musselkanaal </name>
</wpt>
<wpt lat="51.1167993296" lon="3.57268997775">
  <name>aldi Motje 48 9930 Zomergem </name>
</wpt>
<wpt lat="51.237119828" lon="4.96963320787">
  <name>aldi Geelsebaan 64 2460 Kasterlee </name>
</wpt>
<wpt lat="52.2117810832" lon="5.98396006076">
  <name>aldi Auroralaan 39 7321 BN Apeldoorn </name>
</wpt>
<wpt lat="51.3194280005" lon="5.08015084003">
  <name>aldi De Daries 8 2370 Arendonk </name>
</wpt>
<wpt lat="51.2838979177" lon="6.45258755639">
  <name>aldi Jakob-Krebs-Str. 122  47877 Willich-Anrath </name>
</wpt>
<wpt lat="52.1576125057" lon="5.39501232747">
  <name>aldi Kreupelstraat 32 3811 HZ Amersfoort </name>
</wpt>
<wpt lat="51.7793591837" lon="5.93331026791">
  <name>aldi Hoflaan 3 6561 AV Groesbeek </name>
</wpt>
<wpt lat="51.4122979173" lon="5.39705378752">
  <name>aldi Mira (W.C. Zonderwijk) 23a 5505 AR Veldhoven </name>
</wpt>
<wpt lat="51.7678401799" lon="5.5266280445">
  <name>aldi Wolfskooy 5 5345 MH Oss </name>
</wpt>
<wpt lat="50.7721719933" lon="6.06051031585">
  <name>aldi Weststraße 28  52074 Aachen </name>
</wpt>
<wpt lat="52.2888892363" lon="5.97008352838">
  <name>aldi Molenstraat  20 8171 CE Vaassen </name>
</wpt>
<wpt lat="53.0709282541" lon="7.45661717688">
  <name>aldi Umländerwiek links 9-10 26871 Papenburg </name>
</wpt>
<wpt lat="51.2134481543" lon="4.3400900973">
  <name>aldi Heidam 2 2070 Zwijndrecht </name>
</wpt>
<wpt lat="51.1286474105" lon="6.06890098644">
  <name>aldi Angsterweg 16a 6063 AV Vlodrop </name>
</wpt>
<wpt lat="51.1826900353" lon="6.68390206664">
  <name>aldi Holzheimer Weg 44  41464 Neuss-Pomona </name>
</wpt>
<wpt lat="51.9870904826" lon="6.94162965247">
  <name>aldi Breul 91 48703 Stadtlohn </name>
</wpt>
<wpt lat="51.1994185072" lon="3.20219645576">
  <name>aldi Torhoutsesteenweg 130  8000 Brugge </name>
</wpt>
<wpt lat="51.6333572801" lon="4.86317151617">
  <name>aldi Loevensteinlaan 165-173 4902 WT Oosterhout </name>
</wpt>
<wpt lat="51.6600314501" lon="6.63499695772">
  <name>aldi Schermbecker Landstr. 11  46485 Wesel </name>
</wpt>
<wpt lat="51.9590907962" lon="4.4938111394">
  <name>aldi Argonautenweg 14 3054 RP Rotterdam </name>
</wpt>
<wpt lat="51.6622517297" lon="5.03100291426">
  <name>aldi Jan de Rooijstraat 15a 5171 DR Kaatsheuvel </name>
</wpt>
<wpt lat="51.3219009811" lon="6.54760088405">
  <name>aldi Nauenweg 74  47804 Krefeld-Benrad </name>
</wpt>
<wpt lat="52.0231197131" lon="4.17296017006">
  <name>aldi Molenbrink 68 2681 EZ Monster </name>
</wpt>
<wpt lat="51.6492911248" lon="4.60163979995">
  <name>aldi De Donk 12-14 4761 JK Zevenbergen </name>
</wpt>
<wpt lat="51.2262795661" lon="4.41844798882">
  <name>aldi Brugstraat 8 - 10 2060 Antwerpen </name>
</wpt>
<wpt lat="53.0280799465" lon="5.65833369369">
  <name>aldi Boschplein 3 8607 CD Sneek </name>
</wpt>
<wpt lat="51.3470110423" lon="5.88831720797">
  <name>aldi Zonnedauw 6 5768 GB Meijel </name>
</wpt>
<wpt lat="52.3203381403" lon="6.91484785504">
  <name>aldi Henegouwenlaan 56 7577 MH Oldenzaal </name>
</wpt>
<wpt lat="52.2570381527" lon="6.16409417842">
  <name>aldi Beestenmarkt 3 7413 ZA Deventer </name>
</wpt>
<wpt lat="52.3249499405" lon="5.5979712275">
  <name>aldi Tonselsedreef 349 3845 DT Harderwijk </name>
</wpt>
<wpt lat="51.642840127" lon="6.7585817328">
  <name>aldi Junkers Feld 1  46569 Hünxe </name>
</wpt>
<wpt lat="50.8588408747" lon="6.20539102657">
  <name>aldi Eschweiler Straße 2 d  52477 Alsdorf - Mariadorf </name>
</wpt>
<wpt lat="53.1382176535" lon="6.42662414162">
  <name>aldi Padkamp 23 9301 AW Roden </name>
</wpt>
<wpt lat="52.0601705295" lon="4.54069277472">
  <name>aldi Oosterheemplein 403 2721 NG Zoetermeer </name>
</wpt>
<wpt lat="51.4635202295" lon="3.60252946864">
  <name>aldi Vlissingsestraat 1 4388 HA Oost-Souburg </name>
</wpt>
<wpt lat="50.9991814115" lon="5.85854966281">
  <name>aldi Brugstraat 3a 6131 AE Sittard </name>
</wpt>
<wpt lat="51.8275901791" lon="4.65675022796">
  <name>aldi Troelstraplein 1-2 3332 JB Zwijndrecht </name>
</wpt>
<wpt lat="52.0870681528" lon="5.61907830559">
  <name>aldi Dorpsstraat 102-104 6741 AS Lunteren </name>
</wpt>
<wpt lat="51.1031016682" lon="5.86178722059">
  <name>aldi Palmbrugweg 4 6101 AJ Echt </name>
</wpt>
<wpt lat="51.485450267" lon="5.14220403083">
  <name>aldi Bloemenstraat 11 5081 CR Hilvarenbeek </name>
</wpt>
<wpt lat="50.7867293698" lon="6.10277843133">
  <name>aldi Grüner Weg 32  52070 Aachen-Gewerbegebiet </name>
</wpt>
<wpt lat="51.9943783888" lon="5.10255294123">
  <name>aldi Vijfheerenlanden 545-554 4131 GT Vianen ZH </name>
</wpt>
<wpt lat="51.2233226878" lon="3.74590831227">
  <name>aldi Molenstraat 77 9960 Assenede </name>
</wpt>
<wpt lat="52.2079180237" lon="6.88898336566">
  <name>aldi Industriestraat 118 7543 CJ Enschede </name>
</wpt>
<wpt lat="52.4323801612" lon="6.07037587387">
  <name>aldi Stationsweg  1-5 8191 AG Wapenveld </name>
</wpt>
<wpt lat="52.6349315808" lon="4.75277978904">
  <name>aldi Oosterwezenstraat  19 1823 CN Alkmaar </name>
</wpt>
<wpt lat="51.5449806452" lon="5.18227780159">
  <name>aldi Raadhuisstraat 1 5066 AP Moergestel </name>
</wpt>
<wpt lat="51.9858111001" lon="5.84789270178">
  <name>aldi Jacobaweg 3 6862 HE Oosterbeek </name>
</wpt>
<wpt lat="51.5656081077" lon="4.79423851507">
  <name>aldi Allerheiligenweg 85 4834 TN Breda </name>
</wpt>
<wpt lat="52.1654187456" lon="6.40989675975">
  <name>aldi Hanzeweg 17 7241 CS Lochem </name>
</wpt>
<wpt lat="51.8907911368" lon="4.47997057988">
  <name>aldi Ebenhaëzerstraat 15 3083 RC Rotterdam </name>
</wpt>
<wpt lat="51.535572446" lon="4.21852879583">
  <name>aldi Terreplein  8 4691 AA Tholen </name>
</wpt>
<wpt lat="52.7665306467" lon="5.10282273771">
  <name>aldi Randweg  17 1671 GG Medemblik </name>
</wpt>
<wpt lat="50.897047213" lon="6.12983002524">
  <name>aldi Am Boscheler Berg 8  52134 Herzogenrath-Merkstein </name>
</wpt>
<wpt lat="51.5806883589" lon="4.64337731568">
  <name>aldi Concordialaan 195-197 4871 ZA Etten-Leur </name>
</wpt>
<wpt lat="51.6941604089" lon="5.22184795225">
  <name>aldi Oliemaat 6 5251 AG Vlijmen </name>
</wpt>
<wpt lat="52.3430407045" lon="5.6354909249">
  <name>aldi P.C. Hooftplein  20 3842 HB Harderwijk </name>
</wpt>
<wpt lat="52.1360127071" lon="5.58648689059">
  <name>aldi Theaterplein 7 3772 KX Barneveld </name>
</wpt>
<wpt lat="51.5465689958" lon="4.58948996505">
  <name>aldi Kanariestraat  13 4711 JR Sint Willebrord </name>
</wpt>
<wpt lat="51.3303980257" lon="6.33890431218">
  <name>aldi Am Weidenbusch 2  47929 Grefrath </name>
</wpt>
<wpt lat="52.8974619248" lon="4.75476728979">
  <name>aldi Schoolweg 63 1787 AV Julianadorp </name>
</wpt>
<wpt lat="51.0924219038" lon="4.01656814279">
  <name>aldi Zelebaan 128  9160 Lokeren </name>
</wpt>
<wpt lat="53.4071009972" lon="7.43969194426">
  <name>aldi 2. Kompanieweg 8 26632 Ihlowerfehn </name>
</wpt>
<wpt lat="51.8901084479" lon="5.60985126591">
  <name>aldi Marktpassage 5 6651 VD Druten </name>
</wpt>
<wpt lat="51.3485725922" lon="5.55090073464">
  <name>aldi Margrietlaan 3c 5595 EA Leende </name>
</wpt>
<wpt lat="51.9513481839" lon="5.23015768389">
  <name>aldi Lanxmeersestraat 17 4103 XL Culemborg </name>
</wpt>
<wpt lat="52.4495116419" lon="4.59511971831">
  <name>aldi Zeewijkplein  111 1974 PA IJmuiden </name>
</wpt>
<wpt lat="51.9330088783" lon="6.34793350111">
  <name>aldi Hoofdstraat 4 7011 AB Gaanderen </name>
</wpt>
<wpt lat="51.001977226" lon="5.3902639094">
  <name>aldi Industrieweg 2025 3520 Zonhoven </name>
</wpt>
<wpt lat="53.4288399981" lon="7.10805810886">
  <name>aldi Handelsstraße 2 26736 Pewsum </name>
</wpt>
<wpt lat="51.9712313128" lon="6.71164613819">
  <name>aldi Landbouwstraat 15 7101 EK Winterswijk </name>
</wpt>
<wpt lat="52.9766393055" lon="5.44451098866">
  <name>aldi Hearewei 6 8711 GD Workum </name>
</wpt>
<wpt lat="51.3364607608" lon="6.62667823286">
  <name>aldi Bruchfeld 2  47809 Krefeld-Linn </name>
</wpt>
<wpt lat="51.1247981053" lon="4.21202670062">
  <name>aldi Paterstraat 48 -  50 9140 Temse </name>
</wpt>
<wpt lat="51.945261785" lon="5.92618764079">
  <name>aldi Brink 13 6852 EE Huissen </name>
</wpt>
<wpt lat="51.3264981226" lon="6.20000409015">
  <name>aldi Poststraße 50-56  41334 Nettetal-Kaldenkirchen </name>
</wpt>
<wpt lat="51.6992217955" lon="5.97253867636">
  <name>aldi Martinushof 1 6591 DM Gennep </name>
</wpt>
<wpt lat="52.3711403431" lon="4.86213729632">
  <name>aldi Admiraal de Ruijterweg 56c 1056 GL Amsterdam </name>
</wpt>
<wpt lat="51.8196191923" lon="4.64228014332">
  <name>aldi Passage 34-42 3331 CM Zwijndrecht </name>
</wpt>
<wpt lat="51.112740141" lon="3.70601440583">
  <name>aldi Hofbilkstraat 25 9940 Evergem </name>
</wpt>
<wpt lat="52.0796019008" lon="5.48489052877">
  <name>aldi Dorpsstraat 238 3925 KJ Scherpenzeel </name>
</wpt>
<wpt lat="51.066432272" lon="3.72372204825">
  <name>aldi Blaisantvest 13 9000 Gent </name>
</wpt>
<wpt lat="51.6484820102" lon="5.95016355481">
  <name>aldi De Kloostertuin 15 5831 JS Boxmeer </name>
</wpt>
<wpt lat="52.655808544" lon="4.83852111095">
  <name>aldi Rustenburgerweg  108 1703 RZ Heerhugowaard </name>
</wpt>
<wpt lat="52.5025194261" lon="5.47307344287">
  <name>aldi Tjalk  1502/3 8232 LK Lelystad </name>
</wpt>
<wpt lat="51.2261725586" lon="4.4504098787">
  <name>aldi Ten Eekhovelei 29 2100 Deurne </name>
</wpt>
<wpt lat="52.3864898277" lon="6.27790332765">
  <name>aldi Molenhof  30 8102 EX Raalte </name>
</wpt>
<wpt lat="52.1007097638" lon="4.27348633917">
  <name>aldi Westduinweg 1245 2583 AV Scheveningen </name>
</wpt>
<wpt lat="51.3244693676" lon="6.08536756504">
  <name>aldi Diepenbroeklaan 1-3 5991 PT Baarlo </name>
</wpt>
<wpt lat="51.7678123526" lon="6.83850444392">
  <name>aldi Leinenweberstr.  19 46348 Raesfeld </name>
</wpt>
<wpt lat="52.695968373" lon="4.80843880323">
  <name>aldi Voorburggracht  224 1722 GE Zuid-Scharwoude </name>
</wpt>
<wpt lat="51.211752428" lon="4.40214328811">
  <name>aldi Terninckstraat 13 2000 Antwerpen </name>
</wpt>
<wpt lat="50.7711880696" lon="6.12309410641">
  <name>aldi Freunder Weg 23  52068 Aachen-Forst </name>
</wpt>
<wpt lat="51.3825989116" lon="6.45040220488">
  <name>aldi Bahnstraße 6  47906 Kempen-St. Hubert </name>
</wpt>
<wpt lat="51.3097315062" lon="3.38132333323">
  <name>aldi Sint Annastraat 17 4524 JB Sluis </name>
</wpt>
<wpt lat="51.102740257" lon="5.15447077754">
  <name>aldi Heidestraat  79 3945 Ham </name>
</wpt>
<wpt lat="52.2209386638" lon="6.90612443547">
  <name>aldi Lipperkerkstraat 75 7511 CV Enschede </name>
</wpt>
<wpt lat="52.1539323404" lon="6.74438144464">
  <name>aldi Jonkheer Von Heijdenstraat 22 7481 ED Haaksbergen </name>
</wpt>
<wpt lat="52.0505705789" lon="5.64350388041">
  <name>aldi Parkweide 28 6718 DJ Ede </name>
</wpt>
<wpt lat="50.978422598" lon="4.95516312324">
  <name>aldi Mannenberg 34 3270 Scherpenheuvel </name>
</wpt>
<wpt lat="53.0017692624" lon="6.06393673117">
  <name>aldi Schoolstraat 1 8401 CS Gorredijk </name>
</wpt>
<wpt lat="51.1770805799" lon="3.57853556819">
  <name>aldi Gentsesteenweg  26 A 9900 Eeklo </name>
</wpt>
<wpt lat="50.9498307826" lon="5.77679233562">
  <name>aldi Koolweg  61 6181 BL Elsloo </name>
</wpt>
<wpt lat="53.2057196191" lon="5.81327781317">
  <name>aldi Cambuurplein 50 8921 RG Leeuwarden </name>
</wpt>
<wpt lat="53.23558773" lon="6.55106327223">
  <name>aldi Prunusstraat 59-61 9741 LB Groningen </name>
</wpt>
<wpt lat="52.0571292937" lon="4.49659004316">
  <name>aldi Leidsewallen 26 2712 BW Zoetermeer </name>
</wpt>
<wpt lat="53.2193289655" lon="6.56566825511">
  <name>aldi Rode Weeshuisstraat 4 9712 ET Groningen </name>
</wpt>
<wpt lat="51.2678978747" lon="6.52900291324">
  <name>aldi Stahlwerk-Becker-Straße 15  47877 Willich </name>
</wpt>
<wpt lat="53.0094320178" lon="6.56889681968">
  <name>aldi Groningerstraat 340 9402 LT Assen </name>
</wpt>
<wpt lat="52.8748496468" lon="7.0576781125">
  <name>aldi Marktstraat  2 9561 KC Ter Apel </name>
</wpt>
<wpt lat="52.3468095979" lon="5.9861094394">
  <name>aldi Ratelplein 2a 8161 HM Epe </name>
</wpt>
<wpt lat="52.7074397216" lon="5.75760980576">
  <name>aldi Zuiderkade 6 8301 AR Emmeloord </name>
</wpt>
<wpt lat="53.1070777404" lon="6.10413640696">
  <name>aldi Noordkade 72-74 9203 CG Drachten </name>
</wpt>
<wpt lat="52.6996090136" lon="6.1962808987">
  <name>aldi Rembrandtplein 34 7944 GG Meppel </name>
</wpt>
<wpt lat="51.1892006577" lon="6.51050386781">
  <name>aldi Matthias-Hoerenplatz 1-7  41352 Korschenbroich </name>
</wpt>
<wpt lat="52.3924503133" lon="4.95439869987">
  <name>aldi Waterlandplein 26 1024 LW Amsterdam </name>
</wpt>
<wpt lat="51.4116023743" lon="6.69310212667">
  <name>aldi Flutweg 125  47228 Duisburg-Rheinhausen </name>
</wpt>
<wpt lat="51.2098312807" lon="4.04525650202">
  <name>aldi Oost-Eindeken 4 9190 Stekene </name>
</wpt>
<wpt lat="51.1805985493" lon="3.09175976256">
  <name>aldi Gistelsteenweg 308 8490 Jabbeke </name>
</wpt>
<wpt lat="51.7335885677" lon="6.29749055223">
  <name>aldi Xantener Str. 15  47546 Kalkar </name>
</wpt>
<wpt lat="52.9546209898" lon="6.355379884">
  <name>aldi Vaart Zuidzijde 55 8426 AE Appelscha </name>
</wpt>
<wpt lat="51.5994506384" lon="6.38411320931">
  <name>aldi Leipziger Straße 6  47665 Sonsbeck </name>
</wpt>
<wpt lat="51.4914812789" lon="3.60446301009">
  <name>aldi Westerscheldeplein 2 4335 NL Middelburg </name>
</wpt>
<wpt lat="52.6097907064" lon="6.85329828434">
  <name>aldi Mühlenstr. 1  49824 Emlichheim </name>
</wpt>
<wpt lat="52.5668622813" lon="5.8962312381">
  <name>aldi Industrieweg  12a 8263 AD Kampen </name>
</wpt>
<wpt lat="52.675077873" lon="4.85254153478">
  <name>aldi Berckheidelaan 4 1701 VG Heerhugowaard </name>
</wpt>
<wpt lat="52.4062617148" lon="6.78090289506">
  <name>aldi Waldeckstraat 6 7651 EE Tubbergen </name>
</wpt>
<wpt lat="51.02114722" lon="5.31126749953">
  <name>aldi Inakker 31  3550 Zolder </name>
</wpt>
<wpt lat="51.8828313386" lon="5.51464008749">
  <name>aldi Dorpsplein 4 6658 CL Beneden-Leeuwen </name>
</wpt>
<wpt lat="50.8314989945" lon="6.27099653772">
  <name>aldi Am Fließ 8  52249 Eschweiler - Dürwiß </name>
</wpt>
<wpt lat="52.315879793" lon="6.9303881324">
  <name>aldi Ootmarsumsestraat 16-26 7573 GL Oldenzaal </name>
</wpt>
<wpt lat="52.2563995764" lon="6.78959933499">
  <name>aldi Dikkersplein 11 7553 CZ Hengelo </name>
</wpt>
<wpt lat="52.6627307724" lon="5.62240579553">
  <name>aldi Nagel 34 8321 RG Urk </name>
</wpt>
<wpt lat="52.8740517341" lon="5.99814236248">
  <name>aldi Van der Sandeplein 2 8471 RX Wolvega </name>
</wpt>
<wpt lat="52.6245275763" lon="6.04595929227">
  <name>aldi Klaas Fuitestraat 28 8281 BZ Genemuiden </name>
</wpt>
<wpt lat="52.3258018891" lon="4.8597181212">
  <name>aldi Bolestein 41-47 1081 CR Amsterdam </name>
</wpt>
<wpt lat="51.1322085787" lon="5.45896308687">
  <name>aldi Molenstraat 11 b2 3990 Peer </name>
</wpt>
<wpt lat="50.922338191" lon="6.11525202201">
  <name>aldi Am Wasserturm 2  52531 Übach-Palenberg/ Übach </name>
</wpt>
<wpt lat="51.21628737" lon="6.68279590107">
  <name>aldi Normannenstr. 6  41462 Neuss-Weißenberg </name>
</wpt>
<wpt lat="51.0983183876" lon="4.23531913021">
  <name>aldi Dr. De Putterplein 15 2880 Bornem </name>
</wpt>
<wpt lat="52.4980520811" lon="6.89069207671">
  <name>aldi Gölenkamper Str. 5  49843 Uelsen </name>
</wpt>
<wpt lat="52.6569923282" lon="6.74966945569">
  <name>aldi E D S Plein 2 7741 KE Coevorden </name>
</wpt>
<wpt lat="51.6210472736" lon="6.20932106199">
  <name>aldi Industriestraße 38  47652 Weeze </name>
</wpt>
<wpt lat="51.324300769" lon="6.56680140034">
  <name>aldi Saumstr. 5-8  47805 Krefeld-Innenstadt </name>
</wpt>
<wpt lat="50.9964816493" lon="5.21120897766">
  <name>aldi Molemstraat 50  3560 Lummen </name>
</wpt>
<wpt lat="51.2556296525" lon="4.46050026712">
  <name>aldi Bredabaan 891-893 2170 Merksem </name>
</wpt>
<wpt lat="50.9962892075" lon="6.56961627696">
  <name>aldi Wiesenstraße 21  50181 Bedburg </name>
</wpt>
<wpt lat="50.9232905871" lon="5.93839143499">
  <name>aldi Prof. v.d. Hoffstraat 11 6431 VB Hoensbroek </name>
</wpt>
<wpt lat="51.2678584865" lon="6.38187389851">
  <name>aldi Süchtelner Str. 179  41747 Viersen-Rahser </name>
</wpt>
<wpt lat="51.1070995915" lon="6.45999796642">
  <name>aldi Zum Regiopark 26  41363 Jüchen-Hochneukirch </name>
</wpt>
<wpt lat="51.4735090865" lon="5.54521702209">
  <name>aldi Parkhof 13 5671 EX Nuenen </name>
</wpt>
<wpt lat="51.2195826687" lon="4.27726348991">
  <name>aldi Grote Baan 259 9120 Beveren Melsele </name>
</wpt>
<wpt lat="52.3377714067" lon="6.11300371799">
  <name>aldi Hendrik Droststraat 37 8121 BG Olst </name>
</wpt>
<wpt lat="51.6929507206" lon="6.87972035312">
  <name>aldi Marellenkämpe 6  46514 Schermbeck </name>
</wpt>
<wpt lat="51.5041902699" lon="3.59725045081">
  <name>aldi Euromarkt 8 4334 ER Middelburg </name>
</wpt>
<wpt lat="50.9048117574" lon="6.18188275979">
  <name>aldi Im Kirchwinkel 5 g  52499 Baesweiler </name>
</wpt>
<wpt lat="50.9808799477" lon="5.49019652624">
  <name>aldi Wilde Kastanjelaan 5 3600 Winterslag </name>
</wpt>
<wpt lat="51.3544026571" lon="6.64121127001">
  <name>aldi Lange Straße 65  47829 Krefeld-Uerdingen </name>
</wpt>
<wpt lat="52.0017592304" lon="4.35417347365">
  <name>aldi Papsouwselaan 1 2624 AE Delft </name>
</wpt>
<wpt lat="51.9275078428" lon="4.23718971915">
  <name>aldi Koningshoek 96.001 3144 BA Maassluis </name>
</wpt>
<wpt lat="52.1582083659" lon="5.37734965113">
  <name>aldi Groningerstraat 168 3812 EG Amersfoort </name>
</wpt>
<wpt lat="52.2364504477" lon="6.10185213008">
  <name>aldi Duistervoordseweg 22 7391 CD Twello </name>
</wpt>
<wpt lat="51.7125080283" lon="5.31480183344">
  <name>aldi Rompertpassage 48 5233 AR 's-Hertogenbosch </name>
</wpt>
<wpt lat="51.0580785911" lon="3.27365655057">
  <name>aldi Egemsestraat 1  8750 Wingene </name>
</wpt>
<wpt lat="51.2730799333" lon="5.07417934456">
  <name>aldi Turnhoutsebaan 84-88 2470 Retie </name>
</wpt>
<wpt lat="51.1297028091" lon="5.36573041599">
  <name>aldi Lommelsebaan 65 3940 Hechtel </name>
</wpt>
<wpt lat="51.9312011527" lon="5.71130373628">
  <name>aldi Hoofdstraat 27 6671 CD Zetten </name>
</wpt>
<wpt lat="51.383491341" lon="6.17358202137">
  <name>aldi Van Postelstraat 120 5914 PR Venlo </name>
</wpt>
<wpt lat="51.9231875045" lon="6.5732765159">
  <name>aldi Admiraal de Ruyterstraat 12 7122 WJ Aalten </name>
</wpt>
<wpt lat="51.201041432" lon="4.40643305217">
  <name>aldi Lange Lozanastraat 177-179 2018 Antwerpen </name>
</wpt>
<wpt lat="52.053772635" lon="5.28713870084">
  <name>aldi Traay 99-101 3971 GD Driebergen </name>
</wpt>
<wpt lat="52.5259600688" lon="5.71632195084">
  <name>aldi De Schans 51 8254 KN Dronten </name>
</wpt>
<wpt lat="51.8819320259" lon="5.43434865452">
  <name>aldi Kwelkade 53 4001 RL Tiel </name>
</wpt>
<wpt lat="52.0668826333" lon="4.24522066109">
  <name>aldi De Savornin Lohmanplein 26 - 30 2566 AE Den Haag </name>
</wpt>
<wpt lat="51.3434776988" lon="4.38976862281">
  <name>aldi Hoogeind 8 2940 Stabroek </name>
</wpt>
<wpt lat="51.6095996" lon="5.14220403083">
  <name>aldi Tongerloplein 19 5071 CX Udenhout </name>
</wpt>
<wpt lat="53.3023023721" lon="6.5952829156">
  <name>aldi Stationsweg 32 9781 CJ Bedum </name>
</wpt>
<wpt lat="51.1753496855" lon="3.86382736124">
  <name>aldi Stationstraat  94C 9185 Wachtebeke </name>
</wpt>
<wpt lat="51.2615390673" lon="4.50769666499">
  <name>aldi Paalstraat 347 2900 Schoten </name>
</wpt>
<wpt lat="52.5027986201" lon="6.96961654085">
  <name>aldi Veldhausener Straße 65-69 49828 Neuenhaus </name>
</wpt>
<wpt lat="51.2454017561" lon="6.52331020748">
  <name>aldi Langebendstr. 2  47877 Willich-Schiefbahn </name>
</wpt>
<wpt lat="51.2290673059" lon="4.43852984028">
  <name>aldi Slachthuislaan 27 2060 Antwerpen </name>
</wpt>
<wpt lat="51.1851703809" lon="4.37133252989">
  <name>aldi Zeelandstraat 8 2660 Hoboken </name>
</wpt>
<wpt lat="51.1640098745" lon="5.84103987115">
  <name>aldi Akker 5 6017 BN Thorn </name>
</wpt>
<wpt lat="51.7163415847" lon="5.32802186105">
  <name>aldi Manis Krijgsmanhof 176 5233 BV 's-Hertogenbosch </name>
</wpt>
<wpt lat="51.3285998407" lon="6.586100842">
  <name>aldi Neue Ritterstr. 33  47805 Krefeld </name>
</wpt>
<wpt lat="51.1125086605" lon="5.23846741553">
  <name>aldi Leopoldsburgsesteenweg 89 3971 HEPPEN </name>
</wpt>
<wpt lat="51.3055993338" lon="6.28200423418">
  <name>aldi Süchtelner Str. 40  41334 Nettetal-Lobberich </name>
</wpt>
<wpt lat="53.1880915965" lon="5.82978935786">
  <name>aldi Stinzenflora 161 8935 LG Leeuwarden </name>
</wpt>
<wpt lat="50.7608015784" lon="6.15346419704">
  <name>aldi Neuenhofstr. 192  52078 Aachen - Eilendorf </name>
</wpt>
<wpt lat="52.0850013805" lon="7.00318821639">
  <name>aldi Fuistingstraße 66 48683 Ahaus </name>
</wpt>
<wpt lat="52.0985497056" lon="5.24073370598">
  <name>aldi J. van Oldenbarneveltlaan 110 3705 HK Zeist </name>
</wpt>
<wpt lat="50.892021405" lon="6.01529242551">
  <name>aldi Hoofdstraat 144 6372 EN Schaesberg </name>
</wpt>
<wpt lat="52.364940845" lon="6.46832568449">
  <name>aldi Grotestraat  90-96 7443 BL Nijverdal </name>
</wpt>
<wpt lat="51.4163307365" lon="6.59359219098">
  <name>aldi Bahnhofstraße 17  47447 Moers-Kapellen </name>
</wpt>
<wpt lat="52.6640125463" lon="5.20022826085">
  <name>aldi Twijver 48-50 1606 BW Venhuizen </name>
</wpt>
<wpt lat="51.3524987002" lon="4.63426718781">
  <name>aldi Bethovenstraat 59 2960 Brecht </name>
</wpt>
<wpt lat="50.9981117132" lon="5.93026156767">
  <name>aldi Hoengener Weg 1 b  52538 Selfkant - Süsterseel </name>
</wpt>
<wpt lat="51.4904509676" lon="6.44139999561">
  <name>aldi Rheurdter Straße 74  47661 Issum-Sevelen </name>
</wpt>
<wpt lat="51.8333201914" lon="6.57699970735">
  <name>aldi Werther Straße 235  46395 Bocholt-Lowick </name>
</wpt>
<wpt lat="52.0902896951" lon="4.9022200603">
  <name>aldi Frederik Hendriklaan 30 3445 XN Woerden </name>
</wpt>
<wpt lat="50.9164873302" lon="6.0504559003">
  <name>aldi Korte Hovenstraat 10 6374 GG Landgraaf </name>
</wpt>
<wpt lat="51.1730999895" lon="6.3881961294">
  <name>aldi Helmut-Grashoff-Str. 2  41179 Mönchengladbach-Nordpark </name>
</wpt>
<wpt lat="52.5476491686" lon="4.6623170287">
  <name>aldi Bakkerspleintje 77 1901 EZ Castricum </name>
</wpt>
<wpt lat="51.9321826569" lon="4.47121118744">
  <name>aldi Eudokiaplein 8-10 3037 EP Rotterdam </name>
</wpt>
<wpt lat="50.9431390716" lon="5.8862038022">
  <name>aldi Scalaplein 1 6365 BP Schinnen </name>
</wpt>
<wpt lat="51.1822108623" lon="5.11884864873">
  <name>aldi Molderdijk 23 2400 Mol </name>
</wpt>
<wpt lat="52.581389548" lon="6.60414123342">
  <name>aldi Erve Hamhuijs 1 7773 DP Hardenberg </name>
</wpt>
<wpt lat="52.6433796027" lon="5.05226287703">
  <name>aldi Dubbele Buurt 38-42 1621 JW Hoorn </name>
</wpt>
<wpt lat="51.6555682473" lon="6.61842246052">
  <name>aldi Esplanade 18  46483 Wesel </name>
</wpt>
<wpt lat="51.589388807" lon="6.24017678628">
  <name>aldi Weezer Straße 84  47623 Kevelaer </name>
</wpt>
<wpt lat="52.6133293181" lon="6.85968346774">
  <name>aldi Emslandstrasse 51 49824 Emlichheim </name>
</wpt>
<wpt lat="53.4050798204" lon="6.67814640837">
  <name>aldi Molenerf 11 9981 EA Uithuizen </name>
</wpt>
<wpt lat="50.91674814" lon="5.68418918986">
  <name>aldi Steenweg 48  3621 Rekem </name>
</wpt>
<wpt lat="51.8531611849" lon="4.31759806394">
  <name>aldi Hoogwerfsingel 2 c/d 3202 SP Spijkenisse </name>
</wpt>
<wpt lat="52.9664088188" lon="7.33214207341">
  <name>aldi Hauptstraße 44-48 26892 Dörpen </name>
</wpt>
<wpt lat="53.0701123394" lon="6.57901418775">
  <name>aldi Asserstraat 9a 9481 BM Vries </name>
</wpt>
<wpt lat="53.0769417707" lon="7.38916805644">
  <name>aldi Friederikenstraße 44 26871 Papenburg </name>
</wpt>
<wpt lat="53.148062237" lon="7.03482635049">
  <name>aldi Heemskerkstraat 55 9675 BN Winschoten </name>
</wpt>
<wpt lat="51.3258911915" lon="4.93149297857">
  <name>aldi Nieuwe Kaai 29 bus 11 2300 Turnhout </name>
</wpt>
<wpt lat="51.9063791532" lon="5.56500209743">
  <name>aldi Dokter M. van Drielplein 3 4051 AX Ochten </name>
</wpt>
<wpt lat="51.1920977299" lon="6.40849381805">
  <name>aldi Monschauer Str. 42  41068 Mönchengladbach-Waldhausen </name>
</wpt>
<wpt lat="50.8362416736" lon="6.08018747259">
  <name>aldi Honigmannstraße 14  52134 Herzogenrath - Kohlscheid </name>
</wpt>
<wpt lat="51.5916516563" lon="4.52605181897">
  <name>aldi Oost-Vaardeke 41 4731 JV Oudenbosch </name>
</wpt>
<wpt lat="52.6706498972" lon="4.70267858237">
  <name>aldi Jan Oldenburglaan 21 1861 JS Bergen </name>
</wpt>
<wpt lat="50.7765681162" lon="6.14808625384">
  <name>aldi Forster Str. 5  52080 Aachen-Eilendorf </name>
</wpt>
<wpt lat="52.361338257" lon="6.47747178522">
  <name>aldi Bachlaan 30 7442JG Nijverdal </name>
</wpt>
<wpt lat="53.215392555" lon="5.7972788818">
  <name>aldi Bilgaardpassage 41 8918 HT Leeuwarden </name>
</wpt>
<wpt lat="53.179177851" lon="6.15869824879">
  <name>aldi Gedempte Vaart 29 9231 AS Surhuisterveen </name>
</wpt>
<wpt lat="52.7399681557" lon="4.89835297739">
  <name>aldi Dorpsstraat 117 1733 AG Nieuwe-Niedorp </name>
</wpt>
<wpt lat="51.2728492569" lon="4.64671379884">
  <name>aldi Handelslei  199 2980 Zoersel </name>
</wpt>
<wpt lat="51.0680485747" lon="4.97755623122">
  <name>aldi Oude Geelsebaan 12  2431 Veerle-Laakdal </name>
</wpt>
<wpt lat="51.5753678037" lon="6.51358854092">
  <name>aldi Rathausstraße 15  46519 Alpen </name>
</wpt>
<wpt lat="51.1595205465" lon="4.13444222567">
  <name>aldi Pastoor de Meerleerstraat 113 9100 Sint-Niklaas </name>
</wpt>
<wpt lat="53.1853217434" lon="5.78980551926">
  <name>aldi W. Alexanderplein 24 8931 DX Leeuwarden </name>
</wpt>
<wpt lat="51.0420791767" lon="5.30938791737">
  <name>aldi Koolmijnlaan 24  3550 Heusden </name>
</wpt>
<wpt lat="51.2097298689" lon="4.46389070957">
  <name>aldi Boterlaarbaan 91 2100 Deurne </name>
</wpt>
<wpt lat="51.3984018788" lon="6.66370330338">
  <name>aldi Rathausallee 25  47239 Duisburg Rumeln-Kaldenhsn. </name>
</wpt>
<wpt lat="52.3500892627" lon="4.61926650342">
  <name>aldi Kerklaan 27 2101 HK Heemstede </name>
</wpt>
<wpt lat="51.2054985457" lon="6.45809140461">
  <name>aldi Krefelder Str. 70  41061 Mönchengladbach-Lürrip </name>
</wpt>
<wpt lat="51.7964597579" lon="6.15160260132">
  <name>aldi Emmericher Str. 237  47533 Kleve- Kellen </name>
</wpt>
<wpt lat="52.0536122612" lon="4.23623643825">
  <name>aldi Loosduinsehoofdstraat 280 - 282 2552 AN 's-Gravenhage </name>
</wpt>
<wpt lat="51.1240981971" lon="3.03157716069">
  <name>aldi Aartrijkestraat 111 8480 Eernegem </name>
</wpt>
<wpt lat="51.8060975299" lon="4.8991983397">
  <name>aldi Floreffestraat 26 4251 GP Werkendam </name>
</wpt>
<wpt lat="52.0888695928" lon="5.21068737113">
  <name>aldi Pijlstaartlaan 3 3704 HS Zeist </name>
</wpt>
<wpt lat="51.6546811334" lon="6.44219139862">
  <name>aldi Sonsbecker Str. 21  46509 Xanten </name>
</wpt>
<wpt lat="52.2247620286" lon="5.95662068394">
  <name>aldi Koninginnelaan 40c 7315 BT Apeldoorn </name>
</wpt>
<wpt lat="51.1990184024" lon="4.64289168201">
  <name>aldi Liersebaan 190 2240 Zandhoven </name>
</wpt>
<wpt lat="53.1030824277" lon="7.00702831965">
  <name>aldi De Helling 57 9665 JW Oude Pekela </name>
</wpt>
<wpt lat="51.5427378445" lon="4.47636430024">
  <name>aldi Philipslaan 82 4702 NS Roosendaal </name>
</wpt>
<wpt lat="51.3280378934" lon="4.4188257039">
  <name>aldi Kapelsestraat  116 2950 Kapellen </name>
</wpt>
<wpt lat="52.3753625322" lon="7.00648872669">
  <name>aldi Eurowerft 10 7591 DG Denekamp </name>
</wpt>
<wpt lat="52.1448989209" lon="4.40322247404">
  <name>aldi Hofcampweg 57 2241 KD Wassenaar </name>
</wpt>
<wpt lat="51.5172594775" lon="5.39181973577">
  <name>aldi Secretaris L Jansenstraat 34 5682 AC Best </name>
</wpt>
<wpt lat="51.5615996532" lon="5.10641103092">
  <name>aldi Spoordijk 72-74 5018 GH Tilburg </name>
</wpt>
<wpt lat="50.9745607857" lon="5.78067740496">
  <name>aldi Mauritsweg 128 6171 AK Stein </name>
</wpt>
<wpt lat="52.3710579816" lon="4.64734332396">
  <name>aldi Merovingenstraat 82 2033 LZ Haarlem </name>
</wpt>
<wpt lat="52.4931900428" lon="4.78979586634">
  <name>aldi Marktstraat 44 1521 DZ Wormerveer </name>
</wpt>
<wpt lat="50.9299681502" lon="5.97442725174">
  <name>aldi Akerstraat 128 6445 CT Brunssum </name>
</wpt>
<wpt lat="51.185559332" lon="6.45215588202">
  <name>aldi Hofstr. 126  41065 Mönchengladbach-Hardterbr. </name>
</wpt>
<wpt lat="50.8889580054" lon="5.64619285201">
  <name>aldi Molenweideplein 13 3620 Lanaken </name>
</wpt>
<wpt lat="52.9464716413" lon="6.44382816394">
  <name>aldi Veenhoopsweg 34-36 9422 AC Smilde </name>
</wpt>
<wpt lat="52.3496497908" lon="6.66138305363">
  <name>aldi Bornerbroeksestraat 81 7601 BD Almelo </name>
</wpt>
<wpt lat="51.8056693518" lon="4.67572591384">
  <name>aldi Dubbeldamseweg Zuid 72 3314 JA Dordrecht </name>
</wpt>
<wpt lat="52.133512105" lon="6.20486042682">
  <name>aldi Ruys de Beerenbrouckstraat 8 7204 MN Zutphen </name>
</wpt>
<wpt lat="52.0718414228" lon="4.64172256392">
  <name>aldi Puttelaan 142 2771 SV Boskoop </name>
</wpt>
<wpt lat="51.1265026759" lon="5.25548258032">
  <name>aldi Lommelsesteenweg 31  3970 Leopoldsburg </name>
</wpt>
<wpt lat="51.4417590267" lon="5.50338058099">
  <name>aldi Tongelresestraat 227 5613 DG Eindhoven </name>
</wpt>
<wpt lat="50.9276781602" lon="6.21161433208">
  <name>aldi Hauptstraße 150  52499 Baesweiler-Setterich </name>
</wpt>
<wpt lat="51.0633012312" lon="6.56947238551">
  <name>aldi Zur Wassermühle 4  41517 Grevenbroich-Gindorf </name>
</wpt>
<wpt lat="51.0357796579" lon="4.83168626674">
  <name>aldi Westmeerbeeksesteenweg 27a  2230 Ramsel </name>
</wpt>
<wpt lat="51.0846886893" lon="3.71667136686">
  <name>aldi Morekstraat 330 9032 Gent Wondelgem </name>
</wpt>
<wpt lat="52.0841282234" lon="6.1537789596">
  <name>aldi Arnhemsestraat 50 6971 AS Brummen </name>
</wpt>
<wpt lat="51.9773418848" lon="4.14178068998">
  <name>aldi Mercatorweg 11-19 3151 CJ Hoek van Holland </name>
</wpt>
<wpt lat="51.3082023647" lon="6.58489575105">
  <name>aldi Kölner Straße 456-458  47807 Krefeld- Fischeln </name>
</wpt>
<wpt lat="52.5361686822" lon="6.09845269441">
  <name>aldi Rijnlaan  125 8032 MX Zwolle </name>
</wpt>
<wpt lat="51.6989486734" lon="5.67539382455">
  <name>aldi Kerkstraat 33b 5411 EA Zeeland </name>
</wpt>
<wpt lat="50.9814008438" lon="6.28573641884">
  <name>aldi Im Gansbruch 2  52441 Linnich </name>
</wpt>
<wpt lat="51.7379104237" lon="6.59933885604">
  <name>aldi Güterstr. 45  46499 Hamminkeln </name>
</wpt>
<wpt lat="52.3499079811" lon="4.88909895806">
  <name>aldi Pijnackerstraat 36 1072 JV Amsterdam </name>
</wpt>
<wpt lat="51.493519435" lon="4.31114093481">
  <name>aldi Holleweg 107-109 4623 XG Bergen op Zoom </name>
</wpt>
<wpt lat="53.1912600028" lon="5.99477889968">
  <name>aldi Markt 88 9251 JS Burgum </name>
</wpt>
<wpt lat="52.812758614" lon="7.04876583538">
  <name>aldi Hoofdkanaal WZ  13-15 7881 AA Emmer Compascuum </name>
</wpt>
<wpt lat="50.8165521437" lon="6.06552853042">
  <name>aldi Roder Weg 4  52072 Aachen - Richterich </name>
</wpt>
<wpt lat="51.1695476144" lon="6.45682336115">
  <name>aldi Hauptstr. 278  41236 Mönchengladbach-Geneicken </name>
</wpt>
<wpt lat="52.0061993306" lon="6.14643150208">
  <name>aldi Burgemeester Keiserplein 49 6982 BM Doesburg </name>
</wpt>
<wpt lat="53.3615395712" lon="7.16657696576">
  <name>aldi Thüringer Straße 9 26723 Emden </name>
</wpt>
<wpt lat="51.0942519275" lon="5.77945432757">
  <name>aldi Maastrichtersteenweg 6  3680 Maaseik </name>
</wpt>
<wpt lat="51.4195107477" lon="5.44110255978">
  <name>aldi Kastelenplein 60 5653 LP Eindhoven </name>
</wpt>
<wpt lat="51.3713999692" lon="6.50688859495">
  <name>aldi Josef-Heinrichs-Straße 25  47839 Krefeld-Hüls </name>
</wpt>
<wpt lat="53.1629408058" lon="6.74471419364">
  <name>aldi M. Veningastraat 38 9601 KG Hoogezand </name>
</wpt>
<wpt lat="51.4238793971" lon="5.56929186149">
  <name>aldi St. Jozefplein 30-32 5666 RM Geldrop </name>
</wpt>
<wpt lat="50.9985814779" lon="6.42593166399">
  <name>aldi Heinrich-Gossen-Straße 1  52445 Titz </name>
</wpt>
<wpt lat="51.850889165" lon="4.36954287989">
  <name>aldi In de Fuik 25 - 27 3192 HD Hoogvliet </name>
</wpt>
<wpt lat="50.984027883" lon="5.81462679558">
  <name>aldi Bloemenmarkt 21 6163 CG Geleen </name>
</wpt>
<wpt lat="51.1257011969" lon="6.41079608136">
  <name>aldi Beckrather Straße 65  41189 Mönchengladbach-Wickrath </name>
</wpt>
<wpt lat="51.6441181225" lon="3.98600919462">
  <name>aldi Rijksweg 26A 4306 AW Nieuwerkerk </name>
</wpt>
<wpt lat="53.3346218164" lon="6.52056727658">
  <name>aldi Onderdendamsterweg 33B 9951 TD Winsum </name>
</wpt>
<wpt lat="51.2832679229" lon="5.75324809598">
  <name>aldi Dr. Schmidtstraat 9 6031 EX Nederweert </name>
</wpt>
<wpt lat="52.0305400796" lon="5.65471842083">
  <name>aldi Verlengde Blokkenweg 16 6717 AD Ede </name>
</wpt>
<wpt lat="52.1190687958" lon="6.52480308134">
  <name>aldi Stationsweg 5 7271 AG Borculo </name>
</wpt>
<wpt lat="52.2103593401" lon="6.86214760894">
  <name>aldi Nic. Maesstraat 51 7545 CD Enschede </name>
</wpt>
<wpt lat="53.3189325366" lon="6.85812764136">
  <name>aldi Overdiep 2 9902 BX Appingedam </name>
</wpt>
<wpt lat="51.6841084224" lon="4.79594722612">
  <name>aldi Stationsstraat 42B 4921 AD Made </name>
</wpt>
<wpt lat="51.349308412" lon="4.81152347634">
  <name>aldi Merksplassesteenweg 110 2310 Rijkevorsel </name>
</wpt>
<wpt lat="51.456017345" lon="6.63538366601">
  <name>aldi Baustraße 27  47441 Moers </name>
</wpt>
<wpt lat="51.0639003276" lon="6.3408738265">
  <name>aldi Katzemer Straße 2 d  41812 Erkelenz - Kückhoven </name>
</wpt>
<wpt lat="51.9610414797" lon="6.73219563688">
  <name>aldi Kottenseweg 94 7101 JS Winterswijk </name>
</wpt>
<wpt lat="51.248340328" lon="5.71930769857">
  <name>aldi Dr. Schaepmanstraat 17 6004 AD Weert </name>
</wpt>
<wpt lat="52.4123786139" lon="6.62605770095">
  <name>aldi Westeinde  31 7671 EK Vriezenveen </name>
</wpt>
<wpt lat="52.2841581456" lon="6.82996988188">
  <name>aldi Christiaan Langefeldstraat 77 7558 CZ Hengelo (Ov.) </name>
</wpt>
<wpt lat="51.0324090071" lon="5.81063380765">
  <name>aldi Kerkstraat 43-2 6121 LB Born </name>
</wpt>
<wpt lat="52.3779812946" lon="4.61824127679">
  <name>aldi Menno Simonszweg 200 2014 SC Haarlem </name>
</wpt>
<wpt lat="52.1452686815" lon="4.67409814174">
  <name>aldi Ridderhof 55 2402 EM Alphen aan den Rijn </name>
</wpt>
<wpt lat="51.1897981233" lon="6.44149892099">
  <name>aldi Viktoriastr. 55  41061 Mönchengladbach-Dahl </name>
</wpt>
<wpt lat="52.0306396735" lon="6.82529340953">
  <name>aldi Up de Hacke 19 48691 Vreden </name>
</wpt>
<wpt lat="51.1711321203" lon="4.12725664604">
  <name>aldi Plezantstraat 268 9100 Sint-Niklaas </name>
</wpt>
<wpt lat="51.2463475239" lon="4.59773674418">
  <name>aldi Turnhoutsebaan 472 2970 Schilde </name>
</wpt>
<wpt lat="52.9909709109" lon="6.94839255095">
  <name>aldi Hemenweg 18 9501 XZ Stadskanaal </name>
</wpt>
<wpt lat="51.2128002928" lon="6.46480034379">
  <name>aldi Tonderner Straße 33  41066 Mönchengladbach-Neuwerk </name>
</wpt>
<wpt lat="51.9739903143" lon="5.67254297506">
  <name>aldi Churchillweg 92 6706 AD Wageningen </name>
</wpt>
<wpt lat="51.2454073858" lon="4.42995930538">
  <name>aldi Lambrechtshoekenlaan 33 2170 Merksem </name>
</wpt>
<wpt lat="51.0169721407" lon="5.90114153407">
  <name>aldi In der Fummer 3  52538 Selfkant - Tüddern </name>
</wpt>
<wpt lat="52.988691816" lon="6.5807228988">
  <name>aldi Bremstraat 5 9404 GA Assen </name>
</wpt>
<wpt lat="52.2423485709" lon="4.81632585371">
  <name>aldi Sportlaan 17 1421 TE Uithoorn </name>
</wpt>
<wpt lat="51.2951013807" lon="6.36340183273">
  <name>aldi Grefrather Straße 69  41749 Viersen-Süchteln </name>
</wpt>
<wpt lat="51.1902321265" lon="5.99858303007">
  <name>aldi Nassaustraat 78 6043 ED Roermond </name>
</wpt>
<wpt lat="51.89014175" lon="5.92141224307">
  <name>aldi Van der Mondeweg  89 6685 BM Haalderen </name>
</wpt>
<wpt lat="51.7460573348" lon="5.11222064849">
  <name>aldi Parallelweg 2 4261 GA Wijk en Aalburg </name>
</wpt>
<wpt lat="52.2925197307" lon="6.57626226363">
  <name>aldi Dorpsstraat 120-122 7468 HM Enter </name>
</wpt>
<wpt lat="52.0977873072" lon="4.40195443057">
  <name>aldi Prins Frederiklaan 203 2263 HA Leidschendam </name>
</wpt>
<wpt lat="51.8903582133" lon="5.0807533855">
  <name>aldi Europaplein 36 4142 CD Leerdam </name>
</wpt>
<wpt lat="52.5069480001" lon="4.67704791661">
  <name>aldi Gerrit van Assendelftstraat 32 1964 NL Heemskerk </name>
</wpt>
<wpt lat="51.3211984434" lon="6.50580940902">
  <name>aldi Mühlenstraße 135  47918 Tönisvorst </name>
</wpt>
<wpt lat="51.492780334" lon="6.52018056829">
  <name>aldi B.-Schmelzing-Str. 93-101  47475 Kamp-Lintfort </name>
</wpt>
<wpt lat="51.9584091453" lon="5.57171103661">
  <name>aldi Achterbergsestraatweg 25 3911 CR Rhenen </name>
</wpt>
<wpt lat="52.6808793689" lon="5.95611706384">
  <name>aldi Voorpoort 13 8325 CL Vollenhove </name>
</wpt>
<wpt lat="51.6943722404" lon="5.26772234737">
  <name>aldi Boschmeersingel 115 5223 HH 's-Hertogenbosch </name>
</wpt>
<wpt lat="53.1970304271" lon="5.78303362756">
  <name>aldi Snekertrekweg 27 8912 AA Leeuwarden </name>
</wpt>
<wpt lat="51.5886512614" lon="5.30802994175">
  <name>aldi Kapelweg 3 5281 LP Boxtel </name>
</wpt>
<wpt lat="51.3045816941" lon="4.40959866422">
  <name>aldi Antwerpse Steenweg  81 2940 Hoevenen </name>
</wpt>
<wpt lat="51.4556923228" lon="6.05479962366">
  <name>aldi Loevestraat  55 - 57 5961 TW Horst </name>
</wpt>
<wpt lat="51.5874219921" lon="5.33523442033">
  <name>aldi Oosterhof 7-9 5283 BV Boxtel </name>
</wpt>
<wpt lat="51.1545005544" lon="6.44999751016">
  <name>aldi Odenkirchener Str. 298  41236 Mönchengladbach-Mülfort </name>
</wpt>
<wpt lat="51.219729121" lon="4.37386861682">
  <name>aldi Edmond de Coussemakerstraat 2 2050 Antwerpen </name>
</wpt>
<wpt lat="52.227130807" lon="6.89045825309">
  <name>aldi Deurningerstraat 101 7514 BG Enschede </name>
</wpt>
<wpt lat="51.1964599036" lon="6.69556626787">
  <name>aldi Oberstraße 93  41460 Neuss </name>
</wpt>
<wpt lat="51.2769393713" lon="4.04495972589">
  <name>aldi Stationsplein 28 4561 GC Hulst </name>
</wpt>
<wpt lat="51.5880701564" lon="4.31775094861">
  <name>aldi Westdam 81 4651 BE Steenbergen </name>
</wpt>
<wpt lat="50.9853413469" lon="5.70201374409">
  <name>aldi Layensweg 6 3630 Eisden </name>
</wpt>
<wpt lat="51.8370601456" lon="5.84957443319">
  <name>aldi Willemsweg 40 6531 DL Nijmegen </name>
</wpt>
<wpt lat="52.7037016466" lon="5.29186013928">
  <name>aldi Torenstraat 10-12 1601 HH Enkhuizen </name>
</wpt>
<wpt lat="51.8275679467" lon="4.77329331487">
  <name>aldi Rijnstraat 319 3363 EJ Sliedrecht </name>
</wpt>
<wpt lat="51.6510488067" lon="4.85264046016">
  <name>aldi Patrijslaan 2B 4901 AT Oosterhout </name>
</wpt>
<wpt lat="51.9790591213" lon="5.93258181741">
  <name>aldi Johan de Wittlaan 258 6828 WS Arnhem </name>
</wpt>
<wpt lat="51.689750744" lon="4.21361849986">
  <name>aldi Dabbehof 32 3255 XN Oude-Tonge </name>
</wpt>
<wpt lat="52.7050476085" lon="6.18881652937">
  <name>aldi Van Oldenbarneveltplein 3 7942 HS Meppel </name>
</wpt>
<wpt lat="51.1235111692" lon="4.33839937268">
  <name>aldi Provinciale Steenweg 459 2627 Schelle </name>
</wpt>
<wpt lat="52.0961795982" lon="5.10801182338">
  <name>aldi Amsterdamse Straatweg 27-35 3513 AA Utrecht </name>
</wpt>
<wpt lat="51.3471009171" lon="6.54138657176">
  <name>aldi Kleinewefersstr. 50  47803 Krefeld- Inrath </name>
</wpt>
<wpt lat="51.365970724" lon="4.46237984927">
  <name>aldi Willy Vandersteenplein 16 2920 Kalmthout </name>
</wpt>
<wpt lat="51.8330589943" lon="6.25185897395">
  <name>aldi Bahnhofstraße 12  46446 Emmerich </name>
</wpt>
<wpt lat="52.2262604334" lon="5.17244821644">
  <name>aldi Noordse bosje 23 1211 BD Hilversum </name>
</wpt>
<wpt lat="51.1947973667" lon="6.43725412301">
  <name>aldi Am Minto 3  41061 Mönchengladbach </name>
</wpt>
<wpt lat="51.8283182812" lon="6.4661493262">
  <name>aldi Werther Str. 13  46419 Isselburg </name>
</wpt>
<wpt lat="51.9591517563" lon="5.89543084187">
  <name>aldi Kronenburgpassage 124 6831 ES Arnhem </name>
</wpt>
<wpt lat="51.2097016989" lon="6.18029096055">
  <name>aldi Gewerbering 25  41372 Niederkrüchten </name>
</wpt>
<wpt lat="51.9190886221" lon="4.46426842464">
  <name>aldi 1e Middellandstraat 56c 3014 BG Rotterdam </name>
</wpt>
<wpt lat="52.509870943" lon="4.9529597853">
  <name>aldi Wagenweg 16a 1442 BX Purmerend </name>
</wpt>
<wpt lat="51.9606591081" lon="4.53499107573">
  <name>aldi Binnenhof 39 3069 KV Rotterdam </name>
</wpt>
<wpt lat="52.7944473373" lon="7.22633688647">
  <name>aldi Rütenbrocker Str. 24  49733 Haren </name>
</wpt>
<wpt lat="50.9749798248" lon="5.041605916">
  <name>aldi Leuvensesteenweg 94  3290 Diest </name>
</wpt>
<wpt lat="51.4113892219" lon="6.34789752824">
  <name>aldi Auf dem Bock 24  47669 Wachtendonk </name>
</wpt>
<wpt lat="51.9924014676" lon="4.47945796657">
  <name>aldi Molenwerfstraat 27 2651 CK Berkel en Rodenrijs </name>
</wpt>
<wpt lat="52.7802083636" lon="6.92089129624">
  <name>aldi Peyserhof  2 7824 CP Emmen </name>
</wpt>
<wpt lat="52.3136422041" lon="4.97208835586">
  <name>aldi Karspeldreef 1235 1104 SE Amsterdam </name>
</wpt>
<wpt lat="51.1292174416" lon="3.32234582231">
  <name>aldi Hubert d'Ydewallestraat 50-52 8730 Beernem </name>
</wpt>
<wpt lat="51.9527615736" lon="7.01382719099">
  <name>aldi Fabrikstraße 46 48712 Gescher </name>
</wpt>
<wpt lat="50.816648737" lon="5.89278683635">
  <name>aldi Looierstraat 20 6271BB Gulpen </name>
</wpt>
<wpt lat="53.2486817747" lon="6.60197386835">
  <name>aldi Claremaheerd 45 9736 LC Groningen </name>
</wpt>
<wpt lat="50.9975910046" lon="5.49452226317">
  <name>aldi G. Lambertlaan 117  3600 Genk </name>
</wpt>
<wpt lat="51.2350195507" lon="4.47179574649">
  <name>aldi Bisschoppenhoflaan 489 2100 Antwerpen Deurne </name>
</wpt>
<wpt lat="51.9374502506" lon="4.57968735955">
  <name>aldi Bermweg 69 2906 LB Capelle aan den IJssel </name>
</wpt>
<wpt lat="50.8635921275" lon="5.65522204093">
  <name>aldi Malbergsingel 54 6218 AV Maastricht </name>
</wpt>
<wpt lat="50.9940307858" lon="5.98726956427">
  <name>aldi Heinrich-Josef-Otten-Str. 2  52538 Gangelt </name>
</wpt>
<wpt lat="52.0451724658" lon="6.60989689169">
  <name>aldi Het Pand 2 7141 VH Groenlo </name>
</wpt>
<wpt lat="53.0258893544" lon="7.11279753372">
  <name>aldi Wilhelminastraat 25 9541 AM Vlagtwedde </name>
</wpt>
<wpt lat="51.3208893233" lon="4.86199340486">
  <name>aldi Krommenhof 1 2340 Beerse </name>
</wpt>
<wpt lat="52.2151203476" lon="5.49082605137">
  <name>aldi Hoefslag 53 3862 KA Nijkerk GLD </name>
</wpt>
<wpt lat="51.1461402094" lon="5.73098988623">
  <name>aldi Breeërsteenweg 348 3640 Kinrooi </name>
</wpt>
<wpt lat="52.9669179633" lon="5.79861887099">
  <name>aldi Sinnebuorren 10 8501 CB Joure </name>
</wpt>
<wpt lat="53.2625410581" lon="5.75931851682">
  <name>aldi Buterhoek 6 9051 BW Stiens </name>
</wpt>
<wpt lat="53.0412698263" lon="5.66748878764">
  <name>aldi Hugo de Grootstraat 19 8603 BP Sneek </name>
</wpt>
<wpt lat="51.9418911832" lon="5.89390199514">
  <name>aldi Op het Toneel 3 6836 ND Arnhem </name>
</wpt>
<wpt lat="51.0898123003" lon="4.91435190876">
  <name>aldi Boerenkrijglaan 59A 2260 Westerlo </name>
</wpt>
<wpt lat="50.7694988576" lon="6.22975364887">
  <name>aldi Rathausstraße 1  52222 Stolberg - Mitte </name>
</wpt>
<wpt lat="51.4667978017" lon="4.46979925252">
  <name>aldi Nieuwstraat 34 2910 Essen </name>
</wpt>
<wpt lat="51.9184285505" lon="4.35757290932">
  <name>aldi Van Hogendorplaan 43 3135 BC Vlaardingen </name>
</wpt>
<wpt lat="51.1000691144" lon="6.50724832359">
  <name>aldi Kölner Str. 26a  41363 Jüchen </name>
</wpt>
<wpt lat="51.6744222843" lon="6.60680322537">
  <name>aldi Reeser Landstr. 87  46483 Wesel </name>
</wpt>
<wpt lat="51.9244908596" lon="4.50978309112">
  <name>aldi Lusthofstraat 81 3061 WL Rotterdam </name>
</wpt>
<wpt lat="50.7132593816" lon="6.01199191521">
  <name>aldi ch. de Liège 251  4720 La Calamine </name>
</wpt>
<wpt lat="51.3413991342" lon="6.56309619532">
  <name>aldi Gahlingspfad 1  47803 Krefeld </name>
</wpt>
<wpt lat="52.3586580924" lon="4.89078068947">
  <name>aldi Nw. Weteringstraat 24-28 1017 ZX Amsterdam </name>
</wpt>
<wpt lat="52.55715836" lon="5.88457603009">
  <name>aldi Zambonistraat 4F 8263 CE Kampen </name>
</wpt>
<wpt lat="51.1639985953" lon="6.66720166442">
  <name>aldi Maximilianstraße 4  41472 Neuss-Holzheim </name>
</wpt>
<wpt lat="51.966937348" lon="5.90821020189">
  <name>aldi Middelgraaflaan 20 6832 AR Arnhem </name>
</wpt>
<wpt lat="51.1624589626" lon="6.43829733607">
  <name>aldi Mittelstraße 27  41236 Mönchengladbach- Rheydt </name>
</wpt>
<wpt lat="51.1971418081" lon="3.82603786736">
  <name>aldi Rijkswachtlaan  8 9060 Zelzate </name>
</wpt>
<wpt lat="53.1694913493" lon="6.37474227818">
  <name>aldi Industriepark 5-V 9351 PA Leek </name>
</wpt>
<wpt lat="51.503938364" lon="5.74412897489">
  <name>aldi Dorpstraat 54 5761 BP Bakel </name>
</wpt>
<wpt lat="50.8641427193" lon="6.0042577494">
  <name>aldi Heerlerbaan 239a 6418 CE Heerlen </name>
</wpt>
<wpt lat="51.9326983539" lon="4.36910221231">
  <name>aldi Borodinlaan 74 3122 HB Schiedam </name>
</wpt>
<wpt lat="50.8738025605" lon="6.16879763042">
  <name>aldi Allensteiner Straße 17  52477 Alsdorf </name>
</wpt>
<wpt lat="51.0513515955" lon="4.87738079754">
  <name>aldi Dieperstraat 2  2230 Herselt </name>
</wpt>
<wpt lat="51.3743304834" lon="6.14099959958">
  <name>aldi Burg. Coenengrachtstraat  43A - 47 5922 BJ Blerick-Venlo </name>
</wpt>
<wpt lat="51.2386175542" lon="2.97051322365">
  <name>aldi Vloedstraat 6  8450 Bredene </name>
</wpt>
<wpt lat="52.6040398524" lon="6.45777664205">
  <name>aldi Julianastraat  81 7701 GK Dedemsvaart </name>
</wpt>
<wpt lat="51.9177795632" lon="5.84396266637">
  <name>aldi Europaplein 2 6662 DD Elst </name>
</wpt>
<wpt lat="51.2201797403" lon="3.21405850774">
  <name>aldi St. Pieterskaai 25  8000 Brugge </name>
</wpt>
<wpt lat="51.1968994796" lon="6.54840128028">
  <name>aldi Püllenweg 12  41352 Korschenbroich-Kleinenbr. </name>
</wpt>
<wpt lat="51.0771180379" lon="6.30403761352">
  <name>aldi Adam-Opel-Straße 20  41812 Erkelenz </name>
</wpt>
<wpt lat="51.9344006665" lon="5.6284942028">
  <name>aldi Dorpsstraat 4 4043 KK Opheusden </name>
</wpt>
<wpt lat="51.986979715" lon="4.66833349024">
  <name>aldi De Smidse 17 2841 XW Moordrecht </name>
</wpt>
<wpt lat="52.2624491675" lon="4.61869993081">
  <name>aldi Kalslagerring  23 2151 TA Nieuw Vennep </name>
</wpt>
<wpt lat="51.4012072328" lon="6.69735591787">
  <name>aldi Lindenallee 50-50b  47226 Duisburg-Rheinhausen </name>
</wpt>
<wpt lat="53.2273514454" lon="6.56265552773">
  <name>aldi Beren 10 9714 DV Groningen </name>
</wpt>
<wpt lat="51.6864501827" lon="5.13593575924">
  <name>aldi Grotestraat 156a 5151 BP Drunen </name>
</wpt>
<wpt lat="52.5037402024" lon="4.95706069182">
  <name>aldi Poelstraat 23 1441 RR Purmerend </name>
</wpt>
<wpt lat="51.617429004" lon="5.43694769396">
  <name>aldi Hoofdstraat 154 5481 AH Schijndel </name>
</wpt>
<wpt lat="52.1412894553" lon="5.24341368436">
  <name>aldi Dolderseweg 138e 3734 BC Den Dolder </name>
</wpt>
<wpt lat="51.8111074676" lon="5.71428049079">
  <name>aldi Homberg 25-31 6601 XW Wijchen </name>
</wpt>
<wpt lat="51.8048685922" lon="5.58351013607">
  <name>aldi Lietingstraat 21 5368 AA Haren </name>
</wpt>
<wpt lat="50.8706698584" lon="5.82389880134">
  <name>aldi Koningswinkelstraat 2-4-6 6301 WJ Valkenburg </name>
</wpt>
<wpt lat="51.2186983126" lon="6.63399871073">
  <name>aldi Königsberger Str. 7  41564 Kaarst </name>
</wpt>
<wpt lat="51.7710791534" lon="6.11773414964">
  <name>aldi Querallee 13  47533 Kleve- Materborn </name>
</wpt>
<wpt lat="50.9882115891" lon="4.8421903431">
  <name>aldi August Reyerslaan 13 3200 Aarschot </name>
</wpt>
<wpt lat="52.5749080741" lon="6.62145317433">
  <name>aldi Israël Emanuelplein  9 7772 BH Hardenberg </name>
</wpt>
<wpt lat="53.3900225167" lon="7.21149807997">
  <name>aldi Fritz-Reuter-Straße 11 26721 Emden </name>
</wpt>
<wpt lat="52.0809007095" lon="4.87936829829">
  <name>aldi Industrieweg 2  3442 AE Woerden </name>
</wpt>
<wpt lat="52.0821884271" lon="5.41617336486">
  <name>aldi Dorpsstraat 25 3931 ED Woudenberg </name>
</wpt>
<wpt lat="53.3674104725" lon="7.20248687748">
  <name>aldi Lookvenne 12 26721 Emden </name>
</wpt>
<wpt lat="51.9098411895" lon="4.31772396896">
  <name>aldi Dr. Wiardi Beckmansingel 67 3132 CM Vlaardingen </name>
</wpt>
<wpt lat="52.1998215927" lon="5.97640575927">
  <name>aldi Mgr. Nolensstraat 43 7331 RC Apeldoorn </name>
</wpt>
<wpt lat="52.7153888779" lon="6.85768697377">
  <name>aldi Vaart Zuidzijde 49 7833 AC Nieuw-Amsterdam </name>
</wpt>
<wpt lat="50.949111229" lon="5.95927368268">
  <name>aldi Kennedylaan 92a 6441 JG Brunssum </name>
</wpt>
<wpt lat="51.2048787453" lon="6.02550871895">
  <name>aldi St. Wirosingel 194 6042 KZ Roermond </name>
</wpt>
<wpt lat="50.8590225325" lon="6.06755200403">
  <name>aldi Maria Gorettiplein  2 6462 XB Kerkrade </name>
</wpt>
<wpt lat="52.3683289868" lon="5.21893415025">
  <name>aldi Schippergarage 9 1315 SC Almere </name>
</wpt>
<wpt lat="51.8868114139" lon="4.67736267917">
  <name>aldi Planetenlaan 80a 2957 SN Nieuw-Lekkerland </name>
</wpt>
<wpt lat="51.1477988598" lon="6.36830313548">
  <name>aldi Geusenstraße 20  41179 Mönchengladbach-Rheindahlen </name>
</wpt>
<wpt lat="51.5089426339" lon="3.88783924812">
  <name>aldi Molenplein 6 4461 BJ Goes </name>
</wpt>
<wpt lat="52.3619972889" lon="4.79902290602">
  <name>aldi Osdorper Ban 90 1068 MK Amsterdam </name>
</wpt>
<wpt lat="53.2770196418" lon="5.66086978062">
  <name>aldi Beuckelaerstraat 29 9076 DA St. Annaparochie </name>
</wpt>
<wpt lat="51.1672412435" lon="4.14882237815">
  <name>aldi Papenakkerstraat 25 9100 Sint-Niklaas </name>
</wpt>
<wpt lat="51.1594021036" lon="6.47919848271">
  <name>aldi Konstantinstraße 30  41238 Mönchengladbach-Giesenk. </name>
</wpt>
<wpt lat="52.0185927402" lon="5.53986605854">
  <name>aldi Dr. Slotemaker de Bruïnestraat 2 3904 CB Veenendaal </name>
</wpt>
<wpt lat="52.1028089528" lon="6.31631335344">
  <name>aldi De Bleek 4 7251 SG Vorden </name>
</wpt>
<wpt lat="53.0586500766" lon="6.72381395952">
  <name>aldi Zuidlaarderweg 85 9468 AD Annen </name>
</wpt>
<wpt lat="52.1160205269" lon="5.12821957986">
  <name>aldi Euterpedreef 5 3561 CV Utrecht </name>
</wpt>
<wpt lat="52.056731153" lon="4.33738313927">
  <name>aldi Herenstraat 2 2282 BT Rijswijk </name>
</wpt>
<wpt lat="53.2599320252" lon="7.44388278294">
  <name>aldi Nüttermoorer Straße  4 26789 Leer </name>
</wpt>
<wpt lat="52.7162006019" lon="4.93171780897">
  <name>aldi Koningspade 16b 1718 MN Hoogwoud </name>
</wpt>
<wpt lat="52.3584878306" lon="6.5883401528">
  <name>aldi Schoolstraat 25 7642 AS Wierden </name>
</wpt>
<wpt lat="52.4644777314" lon="5.99631673962">
  <name>aldi Zuiderzeestraatweg  510 8091 CT Wezep </name>
</wpt>
<wpt lat="51.0524313724" lon="3.75055780497">
  <name>aldi Dendermondsesteenweg 122 9040 Gent Sint-Amandsberg </name>
</wpt>
<wpt lat="52.2066504702" lon="4.8604465717">
  <name>aldi Prinses Margrietlaan 34 3641 HD Mijdrecht </name>
</wpt>
<wpt lat="52.0877810012" lon="6.44861255489">
  <name>aldi Wildenborchseweg 2 7261 WZ Ruurlo </name>
</wpt>
<wpt lat="51.8735875449" lon="4.58629737335">
  <name>aldi Olmenlaan 14 - 22 2982 CP Ridderkerk </name>
</wpt>
<wpt lat="51.5981378663" lon="4.76938126588">
  <name>aldi Belcrumweg 5-7 4815 HA Breda </name>
</wpt>
<wpt lat="50.6997728177" lon="6.0849538771">
  <name>aldi Aachenerstrasse 49  4731 Eynatten </name>
</wpt>
<wpt lat="52.2525183759" lon="5.61077756717">
  <name>aldi Bilderdijkstraat 46 3881 WD Putten </name>
</wpt>
<wpt lat="52.3589601683" lon="6.6411483175">
  <name>aldi Apollolaan 3a 7604 EH Almelo </name>
</wpt>
<wpt lat="51.3610686912" lon="5.16691738857">
  <name>aldi Kruisstraat 3 5541 CH Reusel </name>
</wpt>
<wpt lat="52.3026505367" lon="6.52199719793">
  <name>aldi A. Baanstraat 20 7461 DV Rijssen </name>
</wpt>
<wpt lat="51.2684999462" lon="6.63020357356">
  <name>aldi Gottlieb-Daimler Str. 1  40670 Meerbusch-Osterath </name>
</wpt>
<wpt lat="51.2178984344" lon="6.27400027188">
  <name>aldi Industriestr. 3  41366 Schwalmtal-Waldniel </name>
</wpt>
<wpt lat="53.1902685539" lon="6.57032674103">
  <name>aldi De Merodelaan 2 9721 XA Groningen </name>
</wpt>
<wpt lat="52.2917826544" lon="4.57925568518">
  <name>aldi Houttuin  8 2181 JG Hillegom </name>
</wpt>
<wpt lat="51.6593006307" lon="6.26086118322">
  <name>aldi Weezer Straße 25  47589 Uedem </name>
</wpt>
<wpt lat="51.8561274147" lon="6.87046633379">
  <name>aldi Otto-Hahn-Str. 18 46325 Borken </name>
</wpt>
<wpt lat="52.0292398061" lon="5.55551425448">
  <name>aldi Scheepjeshof 40 3901 CV Veenendaal </name>
</wpt>
<wpt lat="51.7094877593" lon="5.36656678508">
  <name>aldi Slauerhoffstraat (WC Molenhoek) 7 5242 EB Rosmalen </name>
</wpt>
<wpt lat="51.3363427727" lon="3.24826870163">
  <name>aldi Pannenstraat 202 8301 Heist </name>
</wpt>
<wpt lat="51.1600619962" lon="3.23503068759">
  <name>aldi Brugsestraat 105B  8020 Oostkamp </name>
</wpt>
<wpt lat="52.04091878" lon="4.26249662914">
  <name>aldi Langestede 4-6 2543 VG 's-Gravenhage </name>
</wpt>
<wpt lat="51.021707263" lon="5.37456175416">
  <name>aldi De Vloot 6  3530 Houthalen </name>
</wpt>
<wpt lat="53.1752593127" lon="6.97277315968">
  <name>aldi Esborgstraat 3-5 9679 BS Scheemda </name>
</wpt>
<wpt lat="52.957069829" lon="5.93828351639">
  <name>aldi Abe Lenstra Boulevard 301 8448 JA Heerenveen </name>
</wpt>
<wpt lat="53.1069103766" lon="6.09551191276">
  <name>aldi Markt 67 9203 AA Drachten </name>
</wpt>
<wpt lat="50.8483489388" lon="5.67677877982">
  <name>aldi Volksplein  34b 6214 AM Maastricht </name>
</wpt>
<wpt lat="53.1683484458" lon="7.34960689899">
  <name>aldi Neue Feldstraße 4 26826 Weener </name>
</wpt>
<wpt lat="53.1642509945" lon="6.78598406213">
  <name>aldi Noorderstraat 93 9611 AC Sappemeer </name>
</wpt>
<wpt lat="51.3262227567" lon="3.48354022696">
  <name>aldi Veerhoeklaan 5A 4501 EA Oostburg </name>
</wpt>
<wpt lat="51.8374991392" lon="4.95046866445">
  <name>aldi Gildenweg 133 4204 GG Gorinchem </name>
</wpt>
<wpt lat="51.2090988574" lon="6.33760029585">
  <name>aldi Tomper Weg 75  41169 Mönchengladbach-Hardt </name>
</wpt>
<wpt lat="51.6263680627" lon="6.49193287665">
  <name>aldi Weseler Straße 1  46509 Xanten </name>
</wpt>
<wpt lat="52.4365581156" lon="6.23866592599">
  <name>aldi Marktstraat  24 8141 GC Heino </name>
</wpt>
<wpt lat="51.460242422" lon="5.48951304182">
  <name>aldi Cassandraplein 15 5631 BA Eindhoven </name>
</wpt>
<wpt lat="51.1072294618" lon="6.62232551629">
  <name>aldi Marktplatz 9  41516 Grevenbroich-Wevelinghoven </name>
</wpt>
<wpt lat="53.0353108148" lon="5.66712905899">
  <name>aldi Normandiaplein 6 8603 CS Sneek </name>
</wpt>
<wpt lat="52.0683974167" lon="7.00932158975">
  <name>aldi Coesfelder Straße 68 48683 Ahaus </name>
</wpt>
<wpt lat="53.1182788337" lon="6.09645620044">
  <name>aldi Ringweg 16-18 9201 GN Drachten </name>
</wpt>
<wpt lat="51.4804210139" lon="5.65889127308">
  <name>aldi Noord Koninginnewal 42 5701 NK Helmond </name>
</wpt>
<wpt lat="51.8559385594" lon="4.38938191452">
  <name>aldi Kikkerstraat 4 3171 GH Poortugaal </name>
</wpt>
<wpt lat="51.1782307148" lon="3.75464971828">
  <name>aldi Pastorijstraat 74 9940 Ertvelde </name>
</wpt>
<wpt lat="52.3910398475" lon="4.64734332396">
  <name>aldi Werfstraat 7 2021 BP Haarlem </name>
</wpt>
<wpt lat="52.5293522615" lon="6.43449320568">
  <name>aldi Slagenweg  1 7731 TJ Ommen </name>
</wpt>
</gpx>
